kakao_id,name,address,road_address,latitude,longitude,phone,category,place_url,district
84268936,가배도 신논현점,서울 강남구 역삼동 601-12,서울 강남구 강남대로110길 13,37.504014524333215,127.02594414795091,02-554-4542,음식점 > 카페 > 다방,http://place.map.kakao.com/84268936,강남구
10159026,고센인코퍼레이티드,서울 강남구 청담동 88-23,서울 강남구 선릉로158길 18,37.5251945000821,127.041459017307,,음식점 > 카페,http://place.map.kakao.com/10159026,강남구
7948829,세시셀라 도산공원점,서울 강남구 신사동 651-4,서울 강남구 도산대로45길 10-4,37.52314916281088,127.03616365669063,02-3448-7100,음식점 > 카페 > 테마카페 > 디저트카페,http://place.map.kakao.com/7948829,강남구
35026031,스타벅스 강남R점,서울 강남구 역삼동 825,서울 강남구 강남대로 390,37.4976744709989,127.028443419181,1522-3232,음식점 > 카페 > 커피전문점 > 스타벅스,http://place.map.kakao.com/35026031,강남구
27196653,파시0914,서울 강남구 신사동 631-35,서울 강남구 도산대로45길 15,37.5232359838849,127.035086751653,02-2056-0917,음식점 > 카페,http://place.map.kakao.com/27196653,강남구
26852745,네버랜드,서울 강남구 논현동 180-2,서울 강남구 봉은사로7길 32,37.5076326644887,127.027261897244,02-547-7731,음식점 > 카페,http://place.map.kakao.com/26852745,강남구
22549791,마일스톤커피,서울 강남구 신사동 554-4,서울 강남구 논현로159길 49,37.5218511454281,127.024330407303,070-4219-1195,음식점 > 카페 > 커피전문점,http://place.map.kakao.com/22549791,강남구
1466542951,셀렉티드닉스,서울 강남구 역삼동 827-13,서울 강남구 테헤란로4길 37,37.4962223486255,127.030837985875,070-5176-7947,음식점 > 카페,http://place.map.kakao.com/1466542951,강남구
22400767,10꼬르소꼬모서울카페,서울 강남구 청담동 79,서울 강남구 압구정로 416,37.5267655229983,127.04237397719,,음식점 > 카페,http://place.map.kakao.com/22400767,강남구
522639283,코드이스케이프 가로수길점,서울 강남구 신사동 541-15,서울 강남구 가로수길 14,37.518822164570295,127.02338375716188,02-541-7544,음식점 > 카페 > 테마카페,http://place.map.kakao.com/522639283,강남구
1455370465,북카페레벤,서울 강남구 논현동 123,서울 강남구 학동로 116,37.5115834447788,127.023662004286,02-2278-6607,음식점 > 카페 > 테마카페 > 북카페,http://place.map.kakao.com/1455370465,강남구
19834035,소나,서울 강남구 신사동 520-1,서울 강남구 강남대로162길 40,37.52076776256566,127.02164003918188,02-515-3246,음식점 > 카페 > 테마카페 > 디저트카페,http://place.map.kakao.com/19834035,강남구
27579564,이디야커피랩,서울 강남구 논현동 221-17,서울 강남구 논현로 636,37.51047297481296,127.032981540064,02-545-6467,음식점 > 카페 > 커피전문점 > 이디야커피,http://place.map.kakao.com/27579564,강남구
27413263,비트포비아 강남던전점,서울 강남구 역삼동 824-25,서울 강남구 강남대로84길 33,37.497583697643,127.031112213726,02-555-4360,음식점 > 카페 > 테마카페,http://place.map.kakao.com/27413263,강남구
1016477143,기욤 청담점,서울 강남구 청담동 88-37,서울 강남구 선릉로152길 17,37.524317115354286,127.04090986917596,02-512-6701,음식점 > 카페 > 테마카페 > 디저트카페,http://place.map.kakao.com/1016477143,강남구
25736467,할리스 강남역점,서울 강남구 역삼동 820-11,서울 강남구 강남대로 402,37.49871619356776,127.02777433522404,02-555-0890,음식점 > 카페 > 커피전문점 > 할리스,http://place.map.kakao.com/25736467,강남구
18558469,커피휘엘,서울 강남구 논현동 4-21,서울 강남구 논현로149길 62,37.5169750672937,127.023586788209,02-6215-8138,음식점 > 카페 > 커피전문점,http://place.map.kakao.com/18558469,강남구
27347412,크라프트카페,서울 강남구 역삼동 618-4,서울 강남구 강남대로102길 38-5,37.5033363584559,127.028585804312,070-4667-2436,음식점 > 카페,http://place.map.kakao.com/27347412,강남구
179244712,꽁티드툴레아 도산점,서울 강남구 신사동 646-21,서울 강남구 도산대로49길 39,37.5255636248427,127.036888842603,070-8846-8490,음식점 > 카페,http://place.map.kakao.com/179244712,강남구
1165137776,투썸플레이스 강남구청역점,서울 강남구 논현동 118-15,서울 강남구 학동로 335,37.51697437233935,127.03964688796871,02-511-0456,음식점 > 카페 > 커피전문점 > 투썸플레이스,http://place.map.kakao.com/1165137776,강남구
1850394240,크리에잇쿠키 역삼점,서울 강남구 역삼동 641-1,서울 강남구 테헤란로25길 36,37.50292193725799,127.03511569524726,02-558-8890,음식점 > 카페 > 테마카페 > 디저트카페,http://place.map.kakao.com/1850394240,강남구
815154481,플라워베이커리 신사점,서울 강남구 신사동 517-5,서울 강남구 압구정로2길 45,37.518921704388,127.021103325933,02-515-1345,음식점 > 카페 > 테마카페 > 디저트카페,http://place.map.kakao.com/815154481,강남구
277520995,데바스테이트 청담,서울 강남구 청담동 80-17,서울 강남구 선릉로162길 51,37.52613753145513,127.04479684639043,070-7717-6100,음식점 > 카페 > 커피전문점,http://place.map.kakao.com/277520995,강남구
1992321980,카페봄,서울 강남구 역삼동 700-31,서울 강남구 테헤란로43길 19,37.50460394942532,127.04371182149568,02-554-0613,음식점 > 카페,http://place.map.kakao.com/1992321980,강남구
1802171219,피그커피,서울 강남구 역삼동 674-1,서울 강남구 언주로97길 15,37.5051350280607,127.040081705916,0507-1320-3349,음식점 > 카페,http://place.map.kakao.com/1802171219,강남구
982831030,넥스트에디션 강남5호점,서울 강남구 역삼동 818-13,서울 강남구 강남대로94길 11,37.499545006601,127.028249615716,02-558-9818,음식점 > 카페 > 테마카페,http://place.map.kakao.com/982831030,강남구
20494135,스타벅스 강남대로점,서울 강남구 역삼동 809-10,서울 강남구 강남대로 456,37.5032649716005,127.025559367137,1522-3232,음식점 > 카페 > 커피전문점 > 스타벅스,http://place.map.kakao.com/20494135,강남구
23278986,브라이언스커피,서울 강남구 도곡동 457,서울 강남구 논현로26길 46,37.4838763981292,127.045791451068,02-529-6399,음식점 > 카페 > 테마카페 > 디저트카페,http://place.map.kakao.com/23278986,강남구
1045674602,껠끄쇼즈,서울 강남구 대치동 1023-19,서울 강남구 도곡로70길 5,37.4969939760406,127.056623962964,,음식점 > 카페 > 테마카페 > 디저트카페,http://place.map.kakao.com/1045674602,강남구
1091312120,헤이미,서울 강남구 신사동 608-17,서울 강남구 논현로172길 21,37.52556545703734,127.03046316191093,070-8883-2016,음식점 > 카페 > 테마카페 > 디저트카페,http://place.map.kakao.com/1091312120,강남구
10104174,프레스카29,서울 강남구 도곡동 517-11,서울 강남구 논현로28길 29,37.48389854038591,127.04443468051788,02-575-2558,음식점 > 카페 > 커피전문점,http://place.map.kakao.com/10104174,강남구
534862116,뷰376카페,서울 강남구 압구정동 376-1,,37.531416532105254,127.04226573399961,,음식점 > 카페,http://place.map.kakao.com/534862116,강남구
26874242,더체어,서울 강남구 도곡동 452-2,서울 강남구 논현로26길 30-6,37.4828207272744,127.044981270604,02-576-2286,음식점 > 카페,http://place.map.kakao.com/26874242,강남구
1937691860,카페413프로젝트 역삼점,서울 강남구 역삼동 640-9,서울 강남구 논현로97길 19-11,37.502354493617034,127.03447079843853,070-7798-0544,음식점 > 카페,http://place.map.kakao.com/1937691860,강남구
164341515,차백도 강남한티점,서울 강남구 대치동 921-5,서울 강남구 선릉로 328,37.498906295905485,127.05186214209746,02-563-1007,음식점 > 카페,http://place.map.kakao.com/164341515,강남구
14600986,레이브릭스,서울 강남구 신사동 555-13,서울 강남구 논현로153길 46,37.520517638857065,127.02443857005188,,음식점 > 카페,http://place.map.kakao.com/14600986,강남구
22837049,알베르,서울 강남구 역삼동 618-11,서울 강남구 강남대로102길 34,37.50305626160175,127.02810278517197,02-566-6181,음식점 > 카페,http://place.map.kakao.com/22837049,강남구
1793439352,아토커피 역삼점,서울 강남구 역삼동 672-4,서울 강남구 테헤란로33길 34,37.5039966112702,127.038720556732,070-8810-2666,음식점 > 카페,http://place.map.kakao.com/1793439352,강남구
1279938028,라오상하이 찻집 논현점,서울 강남구 논현동 209-5,서울 강남구 학동로38길 6,37.5145577509229,127.034304480806,02-511-5473,음식점 > 카페,http://place.map.kakao.com/1279938028,강남구
1551717206,엑스케이프 강남점,서울 강남구 역삼동 809-6,서울 강남구 봉은사로2길 16,37.50355057000109,127.02565333332531,02-555-9366,음식점 > 카페 > 테마카페,http://place.map.kakao.com/1551717206,강남구
26395435,스타벅스 신사역점,서울 강남구 논현동 1-3,서울 강남구 도산대로 108,37.51622596162784,127.0207677490634,1522-3232,음식점 > 카페 > 커피전문점 > 스타벅스,http://place.map.kakao.com/26395435,강남구
1106428073,정월,서울 강남구 역삼동 618-21,서울 강남구 강남대로102길 46,37.5036607105687,127.028626642226,02-6013-0926,음식점 > 카페,http://place.map.kakao.com/1106428073,강남구
973394504,우디집 도산점,서울 강남구 신사동 644-22,서울 강남구 압구정로46길 32,37.5265459920532,127.035997864477,070-7728-3306,음식점 > 카페,http://place.map.kakao.com/973394504,강남구
58119466,콩카페 강남구청역점,서울 강남구 논현동 118-4,서울 강남구 선릉로131길 11,37.5174004802721,127.039845066172,0507-1468-0716,음식점 > 카페,http://place.map.kakao.com/58119466,강남구
1535299950,공차 강남본점,서울 강남구 역삼동 649-10,서울 강남구 테헤란로 115,37.4989589376547,127.02993440684,02-558-3390,음식점 > 카페 > 공차,http://place.map.kakao.com/1535299950,강남구
27408085,피에로커피,서울 강동구 성내동 465,서울 강동구 성내로14길 27,37.526582706602746,127.12662608925032,02-471-5618,음식점 > 카페,http://place.map.kakao.com/27408085,강동구
375551127,솔리,서울 강동구 천호동 454-5,서울 강동구 천호대로155길 21,37.53903518322606,127.12601917002799,02-471-6091,음식점 > 카페,http://place.map.kakao.com/375551127,강동구
630064388,스윗솔트,서울 강동구 명일동 222-3,서울 강동구 상암로 286,37.545506991342855,127.15417534716558,02-3427-0999,음식점 > 카페 > 테마카페 > 디저트카페,http://place.map.kakao.com/630064388,강동구
1319161148,브랜뉴하이몬드,서울 강동구 성내동 43-19,서울 강동구 천호옛14길 11,37.5364221327001,127.126160729123,02-478-2402,음식점 > 카페 > 테마카페 > 디저트카페,http://place.map.kakao.com/1319161148,강동구
26856403,카페알마,서울 강동구 천호동 409-3,서울 강동구 천호대로157길 54,37.5400169493446,127.127995289139,02-476-8184,음식점 > 카페,http://place.map.kakao.com/26856403,강동구
711066073,스윗하나,서울 강동구 길동 392-11,서울 강동구 천호대로185길 89,37.53801421720069,127.14201529565753,0507-1475-2126,음식점 > 카페 > 테마카페 > 디저트카페,http://place.map.kakao.com/711066073,강동구
1011094918,채스우드커피,서울 강동구 성내동 434-20,서울 강동구 성안로 42,37.52742525206455,127.13066176262048,02-470-4562,음식점 > 카페,http://place.map.kakao.com/1011094918,강동구
148469115,뭉스벨리,서울 강동구 고덕동 532,서울 강동구 아리수로66길 10,37.56188007022049,127.15474160636779,0502-5552-7920,음식점 > 카페 > 테마카페 > 애견카페,http://place.map.kakao.com/148469115,강동구
667459529,와,서울 강동구 성내동 448-18,서울 강동구 양재대로81길 61,37.52362074924624,127.1310895280932,010-9233-9129,음식점 > 카페,http://place.map.kakao.com/667459529,강동구
474799651,봉연커피,서울 강동구 성내동 436-8,서울 강동구 양재대로85길 78,37.5254215887576,127.130513464248,,음식점 > 카페,http://place.map.kakao.com/474799651,강동구
1171056769,테라로사 길동점,서울 강동구 길동 255-2,서울 강동구 천호대로 1221,37.5360834440817,127.146385780991,1668-2764,음식점 > 카페 > 커피전문점,http://place.map.kakao.com/1171056769,강동구
592894879,우지커피 천호로데오점,서울 강동구 천호동 454-13,서울 강동구 천호대로155길 3,37.5383603924442,127.125964855102,070-5066-3666,음식점 > 카페 > 커피전문점 > 우지커피,http://place.map.kakao.com/592894879,강동구
1238313083,빽다방 천호힐데스하임점,서울 강동구 천호동 578,서울 강동구 올림픽로78길 30,37.541656784506536,127.12630646343759,02-470-1651,음식점 > 카페 > 커피전문점 > 빽다방,http://place.map.kakao.com/1238313083,강동구
1255094197,스타벅스 강동구청DT점,서울 강동구 성내동 550,서울 강동구 성내로 32,37.52921208375212,127.12383613307597,1522-3232,음식점 > 카페 > 커피전문점 > 스타벅스,http://place.map.kakao.com/1255094197,강동구
19163279,커피몽타주,서울 강동구 성내동 555-5,서울 강동구 올림픽로48길 23-12,37.52949345884314,127.12185109538237,070-8262-1303,음식점 > 카페,http://place.map.kakao.com/19163279,강동구
25017323,스타벅스 길동역점,서울 강동구 길동 378-3,서울 강동구 양재대로 1487,37.5387130260926,127.140059161042,1522-3232,음식점 > 카페 > 커피전문점 > 스타벅스,http://place.map.kakao.com/25017323,강동구
672024562,희와,서울 강동구 성내동 423-32,서울 강동구 풍성로52길 50,37.5278893016189,127.13144318031,070-6246-2765,음식점 > 카페,http://place.map.kakao.com/672024562,강동구
1164700769,투썸플레이스 굽은다리역점,서울 강동구 천호동 50-13,서울 강동구 양재대로 1539,37.5432159483807,127.141796589389,02-485-7993,음식점 > 카페 > 커피전문점 > 투썸플레이스,http://place.map.kakao.com/1164700769,강동구
127953014,해밀카페,서울 강동구 길동 394-2,서울 강동구 진황도로47길 66,37.53747152371622,127.14075381893377,02-477-9257,음식점 > 카페,http://place.map.kakao.com/127953014,강동구
1238812899,투썸플레이스 상일동역점,서울 강동구 상일동 520,서울 강동구 고덕로 390,37.5566269498024,127.168780290751,02-426-5107,음식점 > 카페 > 커피전문점 > 투썸플레이스,http://place.map.kakao.com/1238812899,강동구
1273063821,백미당 현대백화점천호점,서울 강동구 천호동 572,서울 강동구 천호대로 1005,37.538853391666365,127.12411910573584,02-2225-8861,음식점 > 카페 > 테마카페 > 디저트카페 > 백미당,http://place.map.kakao.com/1273063821,강동구
2068185089,카페공공장소,서울 강동구 암사동 497-7,서울 강동구 암사길 7-1,37.55104971655273,127.1304291297064,010-4266-6934,음식점 > 카페,http://place.map.kakao.com/2068185089,강동구
12526693,아이스베리 천호점,서울 강동구 천호동 454-64,서울 강동구 천호대로157길 17,37.5386016800367,127.12697453957,,음식점 > 카페,http://place.map.kakao.com/12526693,강동구
1518220846,카페노란코끼리 천호점,서울 강동구 천호동 427-5,서울 강동구 구천면로24길 20-25,37.5399765752049,127.1253158305,,음식점 > 카페 > 테마카페 > 디저트카페,http://place.map.kakao.com/1518220846,강동구
848646060,투썸플레이스 천호로데오점,서울 강동구 천호동 454-60,서울 강동구 천호대로157길 19,37.53872138131369,127.1270969423887,02-470-8717,음식점 > 카페 > 커피전문점 > 투썸플레이스,http://place.map.kakao.com/848646060,강동구
18590263,원두볶는사람들,서울 강동구 성내동 534-18,서울 강동구 성내로9길 45,37.5307331103153,127.124562717743,070-8801-9928,음식점 > 카페 > 커피전문점,http://place.map.kakao.com/18590263,강동구
27393201,빽다방 둔촌동역점,서울 강동구 성내동 416-4,서울 강동구 양재대로 1367,37.52819855949907,127.13602783558379,02-478-1205,음식점 > 카페 > 커피전문점 > 빽다방,http://place.map.kakao.com/27393201,강동구
618625560,쿰베오,서울 강동구 길동 83-4,서울 강동구 명일로26길 12,37.54270351473153,127.14820918750895,0507-1406-5280,음식점 > 카페 > 테마카페 > 디저트카페,http://place.map.kakao.com/618625560,강동구
1869128016,투썸플레이스 암사역점,서울 강동구 암사동 501-2,서울 강동구 올림픽로 778,37.550411015755586,127.12786028769737,02-6954-2477,음식점 > 카페 > 커피전문점 > 투썸플레이스,http://place.map.kakao.com/1869128016,강동구
1531705779,바하마스,서울 강동구 길동 247,서울 강동구 진황도로 123,37.5347757783456,127.139956758117,,음식점 > 카페,http://place.map.kakao.com/1531705779,강동구
248992774,이웃집 마들렌,서울 강동구 길동 329-15,서울 강동구 양재대로124길 77,37.5422958056274,127.146409241705,02-482-8255,음식점 > 카페 > 테마카페 > 디저트카페,http://place.map.kakao.com/248992774,강동구
425558740,데이롱카페 성내삼성점,서울 강동구 성내동 271-2,서울 강동구 풍성로 126,37.531610900940336,127.1260575893988,,음식점 > 카페 > 테마카페 > 무인카페 > 데이롱카페,http://place.map.kakao.com/425558740,강동구
1935059169,스타벅스 굽은다리역점,서울 강동구 명일동 353-2,서울 강동구 양재대로 1568,37.5454029005901,127.14310091793,1522-3232,음식점 > 카페 > 커피전문점 > 스타벅스,http://place.map.kakao.com/1935059169,강동구
2009914315,스타벅스 둔촌포레온스테이션5점,서울 강동구 둔촌동 170-1,서울 강동구 양재대로 1360,37.5267093614523,127.136672234168,1522-3232,음식점 > 카페 > 커피전문점 > 스타벅스,http://place.map.kakao.com/2009914315,강동구
21330539,디카페아날로그,서울 강동구 천호동 412-2,서울 강동구 천호대로157길 51,37.5400388820035,127.12771018865,,음식점 > 카페 > 커피전문점,http://place.map.kakao.com/21330539,강동구
1886576749,더브렉퍼스트클럽,서울 강동구 천호동 335-30,서울 강동구 구천면로13길 34,37.54327292229144,127.12313519540469,0502-5552-5607,음식점 > 카페,http://place.map.kakao.com/1886576749,강동구
1823155152,투썸플레이스 고덕비즈밸리점,서울 강동구 고덕동 98-12,서울 강동구 고덕비즈밸리로2가길 21,37.56596764972108,127.16032123188495,02-481-3537,음식점 > 카페 > 커피전문점 > 투썸플레이스,http://place.map.kakao.com/1823155152,강동구
1749096990,스타벅스 강동암사DT점,서울 강동구 암사동 441-12,서울 강동구 고덕로 43,37.55510465765727,127.1300185890668,1522-3232,음식점 > 카페 > 커피전문점 > 스타벅스,http://place.map.kakao.com/1749096990,강동구
448338392,성내동커피집 온온,서울 강동구 성내동 469-9,서울 강동구 성내로18길 34,37.52551769516313,127.12832120997341,,음식점 > 카페,http://place.map.kakao.com/448338392,강동구
624432783,투썸플레이스 천호역해링턴타워점,서울 강동구 성내동 609,서울 강동구 올림픽로 610,37.53613968009076,127.12316306595905,02-2088-6330,음식점 > 카페 > 커피전문점 > 투썸플레이스,http://place.map.kakao.com/624432783,강동구
537405484,더벤티 천호역성내점,서울 강동구 성내동 82-28,서울 강동구 올림픽로62길 18,37.5362859431838,127.123736948246,070-8211-2225,음식점 > 카페 > 커피전문점 > 더벤티,http://place.map.kakao.com/537405484,강동구
756205087,피크커피,서울 강동구 성내동 550-5,서울 강동구 성내로 42,37.5287794807639,127.12480836158537,02-470-3627,음식점 > 카페,http://place.map.kakao.com/756205087,강동구
66958864,공차 둔촌동역점,서울 강동구 성내동 416,서울 강동구 양재대로 1371,37.5287021750612,127.136066083953,02-478-3360,음식점 > 카페 > 공차,http://place.map.kakao.com/66958864,강동구
762795672,컴포즈커피 천호2동점,서울 강동구 천호동 357-12,서울 강동구 올림픽로 686,37.5424788760692,127.125102763575,,음식점 > 카페 > 커피전문점 > 컴포즈커피,http://place.map.kakao.com/762795672,강동구
2084777605,카페씨모,서울 강동구 명일동 312-81,서울 강동구 고덕로38길 69,37.55144548859973,127.14269148810838,010-4241-9957,음식점 > 카페 > 테마카페 > 디저트카페,http://place.map.kakao.com/2084777605,강동구
26572250,스타벅스 미아사거리역점,서울 강북구 미아동 35-30,서울 강북구 도봉로 32,37.6118231378487,127.03058891879,1522-3232,음식점 > 카페 > 커피전문점 > 스타벅스,http://place.map.kakao.com/26572250,강북구
66950261,카페마메,서울 강북구 번동 437-55,서울 강북구 덕릉로 134,37.6349015244766,127.028595343242,0503-7152-0291,음식점 > 카페,http://place.map.kakao.com/66950261,강북구
891083645,한옥카페 선운각,서울 강북구 우이동 260-6,서울 강북구 삼양로173길 223,37.6557267272678,126.999832278425,0507-1399-1105,음식점 > 카페 > 테마카페,http://place.map.kakao.com/891083645,강북구
714285841,투썸플레이스 수유사거리점,서울 강북구 수유동 47-2,서울 강북구 도봉로 295,37.634880227940236,127.0229759666256,02-900-2388,음식점 > 카페 > 커피전문점 > 투썸플레이스,http://place.map.kakao.com/714285841,강북구
1275464963,메가MGC커피 삼양사거리점,서울 강북구 미아동 1348-3,서울 강북구 솔샘로 251,37.619733277543126,127.02061074252946,02-988-5688,음식점 > 카페 > 커피전문점 > 메가MGC커피,http://place.map.kakao.com/1275464963,강북구
1505302020,투썸플레이스 강북구청점,서울 강북구 수유동 191-35,서울 강북구 한천로 1035,37.63984839603788,127.02661446707614,02-6953-9227,음식점 > 카페 > 커피전문점 > 투썸플레이스,http://place.map.kakao.com/1505302020,강북구
17884745,스타벅스 미아역점,서울 강북구 미아동 121-19,서울 강북구 도봉로 196,37.62618135859377,127.02654615622092,1522-3232,음식점 > 카페 > 커피전문점 > 스타벅스,http://place.map.kakao.com/17884745,강북구
1436418004,칠복상회로스터스 수유,서울 강북구 수유동 192-93,서울 강북구 한천로139가길 15,37.640091946183816,127.0253229153461,02-999-4889,음식점 > 카페,http://place.map.kakao.com/1436418004,강북구
10534106,스타벅스 수유역점,서울 강북구 번동 418-20,서울 강북구 도봉로 342,37.6381798439037,127.026294369466,,음식점 > 카페 > 커피전문점 > 스타벅스,http://place.map.kakao.com/10534106,강북구
26909639,투썸플레이스 미아테라스파크점,서울 강북구 미아동 811-9,서울 강북구 삼양로27길 43,37.61873527661519,127.01885479415961,02-985-2355,음식점 > 카페 > 커피전문점 > 투썸플레이스,http://place.map.kakao.com/26909639,강북구
716238559,메가MGC커피 미아삼각산점,서울 강북구 미아동 1357-3,서울 강북구 삼양로19길 74,37.61637016435734,127.01896972787999,02-989-0688,음식점 > 카페 > 커피전문점 > 메가MGC커피,http://place.map.kakao.com/716238559,강북구
1767591498,커피바실리아,서울 강북구 우이동 71-35,서울 강북구 삼양로 541,37.6510589535539,127.012700714506,,음식점 > 카페 > 커피전문점,http://place.map.kakao.com/1767591498,강북구
1714203927,수다방,서울 강북구 번동 465-84,서울 강북구 한천로132길 87,37.642117726906136,127.03130042635298,010-8344-8620,음식점 > 카페,http://place.map.kakao.com/1714203927,강북구
1363689657,아띠랑스,서울 강북구 수유동 568-19,서울 강북구 4.19로 42-1,37.647231876555,127.009513715863,,음식점 > 카페 > 테마카페 > 디저트카페,http://place.map.kakao.com/1363689657,강북구
4331171,큐브이스케이프 수유점,서울 강북구 수유동 229-46,서울 강북구 도봉로87길 11,37.6383315131476,127.024894047779,02-903-0706,음식점 > 카페 > 테마카페,http://place.map.kakao.com/4331171,강북구
590806256,수유가배당,서울 강북구 번동 463-18,서울 강북구 한천로132길 11,37.6396370838233,127.028670803783,02-6498-0013,음식점 > 카페,http://place.map.kakao.com/590806256,강북구
27440919,벤투라커피로스터스,서울 강북구 미아동 75-148,서울 강북구 도봉로10다길 7-1,37.6145439515513,127.03124695784,070-8225-8075,음식점 > 카페,http://place.map.kakao.com/27440919,강북구
1842353169,시우어게인,서울 강북구 미아동 1354-5,서울 강북구 솔샘로 167,37.620057989124405,127.0113203263076,010-2979-6003,음식점 > 카페 > 커피전문점,http://place.map.kakao.com/1842353169,강북구
1889290309,디저트39 미아사거리역점,서울 강북구 미아동 49-35,서울 강북구 월계로 43,37.611433762233155,127.03439989571534,02-989-1139,음식점 > 카페 > 테마카페 > 디저트카페 > 디저트39,http://place.map.kakao.com/1889290309,강북구
2021943104,어니언 미아,서울 강북구 미아동 127-9,서울 강북구 솔매로50길 55,37.62395015005225,127.02812104761902,070-7816-2714,음식점 > 카페,http://place.map.kakao.com/2021943104,강북구
918854467,공원앞카페,서울 강북구 번동 416-119,서울 강북구 덕릉로41길 95,37.6382597071575,127.027711766224,010-5722-1580,음식점 > 카페,http://place.map.kakao.com/918854467,강북구
1789640308,카페소소,서울 강북구 미아동 460-79,서울 강북구 솔샘로64길 21,37.6163305497636,127.027898442618,010-5207-3576,음식점 > 카페 > 커피전문점,http://place.map.kakao.com/1789640308,강북구
800923957,라라브레드 수유점,서울 강북구 수유동 221-20,서울 강북구 노해로14길 8,37.6394328784859,127.023115595335,,음식점 > 카페 > 테마카페 > 디저트카페,http://place.map.kakao.com/800923957,강북구
24580890,카페블라썸,서울 강북구 수유동 166-10,서울 강북구 도봉로101길 53,37.6441619797571,127.028036886005,,음식점 > 카페,http://place.map.kakao.com/24580890,강북구
34945543,선데이베이글 수유점,서울 강북구 수유동 189-37,서울 강북구 한천로143길 12,37.6408038773905,127.024598019624,02-905-5666,음식점 > 카페 > 테마카페 > 디저트카페,http://place.map.kakao.com/34945543,강북구
7888616,미즐카페엠,서울 강북구 수유동 535-11,서울 강북구 4.19로 107,37.64355438326736,127.00378445026934,02-999-5055,음식점 > 카페,http://place.map.kakao.com/7888616,강북구
234080048,무너미,서울 강북구 수유동 222-78,서울 강북구 노해로8가길 40,37.6397949778714,127.023602902608,02-903-5058,음식점 > 카페 > 커피전문점,http://place.map.kakao.com/234080048,강북구
688710816,문화사,서울 강북구 수유동 695-7,서울 강북구 노해로32길 32,37.6442319963859,127.025196282755,0502-5551-9920,음식점 > 카페,http://place.map.kakao.com/688710816,강북구
24046171,제이스파크,서울 강북구 수유동 535-117,서울 강북구 4.19로 93,37.6444895581838,127.005030889175,02-990-3355,음식점 > 카페,http://place.map.kakao.com/24046171,강북구
17063711,드롭바이드롭,서울 강북구 미아동 164-13,서울 강북구 도봉로68길 33,37.6314549009584,127.02623762139,,음식점 > 카페,http://place.map.kakao.com/17063711,강북구
689923892,옐로우캔 수유역점,서울 강북구 수유동 191-57,서울 강북구 한천로139길 11,37.63956016721345,127.02622914145256,0503-7154-0469,음식점 > 카페,http://place.map.kakao.com/689923892,강북구
2034455524,카페산아래,서울 강북구 우이동 217-1,서울 강북구 삼양로181길 56,37.6668164407793,127.010498892405,,음식점 > 카페,http://place.map.kakao.com/2034455524,강북구
1333991895,더벤티 미아사거리역점,서울 강북구 미아동 62-27,서울 강북구 도봉로 63,37.614800232369475,127.02969762387077,02-2038-4110,음식점 > 카페 > 커피전문점 > 더벤티,http://place.map.kakao.com/1333991895,강북구
877931777,메가MGC커피 광산사거리점,서울 강북구 수유동 231-1,서울 강북구 노해로 87,37.64351449743944,127.02228745405016,02-6338-7748,음식점 > 카페 > 커피전문점 > 메가MGC커피,http://place.map.kakao.com/877931777,강북구
540024907,메가MGC커피 강북북부시장점,서울 강북구 번동 412-52,서울 강북구 한천로 981,37.6366531842926,127.031563247496,02-906-9616,음식점 > 카페 > 커피전문점 > 메가MGC커피,http://place.map.kakao.com/540024907,강북구
1424138243,위드위드,서울 강북구 수유동 521-48,서울 강북구 인수봉로 235,37.6400706501918,127.011778834654,,음식점 > 카페,http://place.map.kakao.com/1424138243,강북구
1231145683,메리모로우,서울 강북구 번동 443-107,서울 강북구 도봉로82길 25,37.63541408838428,127.02505848446347,02-6952-8725,음식점 > 카페,http://place.map.kakao.com/1231145683,강북구
2061861138,무드앤밀,서울 강북구 수유동 238-9,서울 강북구 한천로 1099,37.6435506901658,127.021460324592,02-908-2389,음식점 > 카페,http://place.map.kakao.com/2061861138,강북구
1410079518,타임투휠,서울 강북구 미아동 374-11,서울 강북구 솔샘로67길 20,37.6181053089273,127.028680656727,,음식점 > 카페 > 커피전문점,http://place.map.kakao.com/1410079518,강북구
1375965927,코스모,서울 강북구 미아동 87-177,서울 강북구 오현로6길 19,37.615592392948706,127.03239363276357,,음식점 > 카페,http://place.map.kakao.com/1375965927,강북구
1502756327,진스24,서울 강북구 수유동 605-312,서울 강북구 삼각산로 127-1,37.6411176349257,127.018486548939,,음식점 > 카페,http://place.map.kakao.com/1502756327,강북구
123184269,티틸,서울 강북구 수유동 221-21,서울 강북구 노해로 42,37.63917703000652,127.02295576272321,070-8836-5121,음식점 > 카페 > 테마카페 > 디저트카페,http://place.map.kakao.com/123184269,강북구
1347849636,투썸플레이스 미아사거리역점,서울 강북구 미아동 1364,서울 강북구 도봉로 52,37.6137008153997,127.030523996177,02-6312-6400,음식점 > 카페 > 커피전문점 > 투썸플레이스,http://place.map.kakao.com/1347849636,강북구
1536804501,할리스 덕성여대점,서울 강북구 우이동 71-31,서울 강북구 삼양로 547,37.6516374099802,127.012462842757,02-6093-0011,음식점 > 카페 > 커피전문점 > 할리스,http://place.map.kakao.com/1536804501,강북구
657378473,옥류헌릴렉스,서울 강북구 우이동 236,서울 강북구 삼양로181길 142,37.66998269610519,127.00778467628672,02-993-1829,음식점 > 카페,http://place.map.kakao.com/657378473,강북구
482613052,스타벅스 방화DT,서울 강서구 방화동 293-4,서울 강서구 방화대로 375,37.57445728526807,126.81648812269275,1522-3232,음식점 > 카페 > 커피전문점 > 스타벅스,http://place.map.kakao.com/482613052,강서구
236343218,투썸플레이스 강서구청점,서울 강서구 화곡동 1095,서울 강서구 화곡로 347,37.554929584550514,126.85141576828313,02-2699-3948,음식점 > 카페 > 커피전문점 > 투썸플레이스,http://place.map.kakao.com/236343218,강서구
1099800013,벤의서재,서울 강서구 마곡동 774-3,서울 강서구 공항대로 219,37.5597596295168,126.83179212343,010-8189-8353,음식점 > 카페 > 테마카페 > 북카페,http://place.map.kakao.com/1099800013,강서구
1980538896,베러고,서울 강서구 내발산동 742,서울 강서구 강서로47길 108,37.55517715872639,126.82927866999574,010-5855-4855,음식점 > 카페,http://place.map.kakao.com/1980538896,강서구
1727059329,투썸플레이스 강서등촌한빛점,서울 강서구 등촌동 656-37,서울 강서구 공항대로45길 33,37.55671628165396,126.85505646158697,02-2088-8781,음식점 > 카페 > 커피전문점 > 투썸플레이스,http://place.map.kakao.com/1727059329,강서구
717201426,카페 공명 마곡책빵,서울 강서구 마곡동 768-1,서울 강서구 마곡중앙로 105-7,37.56216560815246,126.82579931301933,,음식점 > 카페,http://place.map.kakao.com/717201426,강서구
1592887328,크레스타운커피,서울 강서구 마곡동 767,서울 강서구 마곡중앙로 143,37.5647749847906,126.825253333497,,음식점 > 카페,http://place.map.kakao.com/1592887328,강서구
1943025765,고양이정원,서울 강서구 개화동 559-49,서울 강서구 개화동로19길 18,37.57569902731598,126.80317230398332,02-2665-4507,음식점 > 카페 > 테마카페 > 고양이카페,http://place.map.kakao.com/1943025765,강서구
93367958,루트205,서울 강서구 내발산동 755-4,서울 강서구 남부순환로 205,37.547449177791,126.821276567031,,음식점 > 카페 > 테마카페 > 디저트카페,http://place.map.kakao.com/93367958,강서구
1165062761,스타벅스 발산역5번출구점,서울 강서구 내발산동 647,서울 강서구 강서로52길 43,37.55804161709554,126.8403634966411,1522-3232,음식점 > 카페 > 커피전문점 > 스타벅스,http://place.map.kakao.com/1165062761,강서구
1367706789,레프커피,서울 강서구 마곡동 743-4,서울 강서구 마곡서로 133,37.566833937270886,126.8235563266325,,음식점 > 카페,http://place.map.kakao.com/1367706789,강서구
1908113508,투썸플레이스 강서발산점,서울 강서구 마곡동 793-7,서울 강서구 강서로 401,37.5615505890783,126.838737500658,02-6227-4127,음식점 > 카페 > 커피전문점 > 투썸플레이스,http://place.map.kakao.com/1908113508,강서구
494829986,사이유지,서울 강서구 등촌동 643-3,서울 강서구 공항대로53가길 48,37.5554416301059,126.858990569419,0503-7153-7340,음식점 > 카페,http://place.map.kakao.com/494829986,강서구
1445156015,광화문살롱 등촌점,서울 강서구 등촌동 639-23,서울 강서구 공항대로45길 63,37.5578671663098,126.856047925754,02-2668-3966,음식점 > 카페,http://place.map.kakao.com/1445156015,강서구
689518739,메가MGC커피 가양두산위브점,서울 강서구 등촌동 726,서울 강서구 공항대로45길 15,37.55632564735427,126.85464752618107,02-2659-0779,음식점 > 카페 > 커피전문점 > 메가MGC커피,http://place.map.kakao.com/689518739,강서구
813962895,메가MGC커피 마곡GMG타워점,서울 강서구 마곡동 773-2,서울 강서구 마곡중앙6로 16,37.560528826206635,126.82910574286976,02-3663-2806,음식점 > 카페 > 커피전문점 > 메가MGC커피,http://place.map.kakao.com/813962895,강서구
17047028,투썸플레이스 가양역점,서울 강서구 등촌동 628-11,서울 강서구 양천로 504,37.560367342486245,126.85597520731113,02-2668-7021,음식점 > 카페 > 커피전문점 > 투썸플레이스,http://place.map.kakao.com/17047028,강서구
357240350,연영,서울 강서구 화곡동 372-2,서울 강서구 가로공원로 188,37.53689941128432,126.83685581773038,02-2606-6903,음식점 > 카페,http://place.map.kakao.com/357240350,강서구
913333770,메가MGC커피 우장산역점,서울 강서구 내발산동 723-8,서울 강서구 강서로45길 6,37.548063979601864,126.83576776460664,02-2695-2323,음식점 > 카페 > 커피전문점 > 메가MGC커피,http://place.map.kakao.com/913333770,강서구
91305203,투썸플레이스 마곡점,서울 강서구 마곡동 727-1064,서울 강서구 마곡중앙6로 40,37.56021508332565,126.83147645789869,02-3662-5800,음식점 > 카페 > 커피전문점 > 투썸플레이스,http://place.map.kakao.com/91305203,강서구
1186321777,스타벅스 화곡역8번출구점,서울 강서구 화곡동 1051-27,서울 강서구 강서로 179,37.5423628473275,126.839321974376,1522-3232,음식점 > 카페 > 커피전문점 > 스타벅스,http://place.map.kakao.com/1186321777,강서구
1082320725,스타벅스 우장산역,서울 강서구 내발산동 719-6,서울 강서구 강서로 267,37.54952281316778,126.83585283195558,1522-3232,음식점 > 카페 > 커피전문점 > 스타벅스,http://place.map.kakao.com/1082320725,강서구
1565898783,컴포즈커피 방화방신점,서울 강서구 방화동 249-254,서울 강서구 초원로13길 58,37.5697739672724,126.81307320475582,02-2666-2371,음식점 > 카페 > 커피전문점 > 컴포즈커피,http://place.map.kakao.com/1565898783,강서구
2045647248,카페 우드진 마곡나루점,서울 강서구 마곡동 365-15,서울 강서구 마곡중앙로 161-8,37.5691821869128,126.826772288671,02-6989-8108,음식점 > 카페,http://place.map.kakao.com/2045647248,강서구
4569790,카페07772,서울 강서구 화곡동 425-26,서울 강서구 곰달래로 69,37.5303088726447,126.840354739054,,음식점 > 카페,http://place.map.kakao.com/4569790,강서구
27146708,할리스 발산역점,서울 강서구 내발산동 654,서울 강서구 강서로 357,37.55765751497726,126.83751792494034,02-2663-4976,음식점 > 카페 > 커피전문점 > 할리스,http://place.map.kakao.com/27146708,강서구
1544040737,스타벅스 등촌대로점,서울 강서구 염창동 312,서울 강서구 공항대로 543,37.5507253809572,126.866368833694,1522-3232,음식점 > 카페 > 커피전문점 > 스타벅스,http://place.map.kakao.com/1544040737,강서구
1688973510,카페우드진,서울 강서구 마곡동 772-5,서울 강서구 마곡중앙6로 45,37.56058266177502,126.83272401641838,02-6052-0116,음식점 > 카페 > 커피전문점,http://place.map.kakao.com/1688973510,강서구
443737289,퐁퐁,서울 강서구 염창동 274-2,서울 강서구 공항대로61길 10-6,37.5513066718965,126.86570463714317,0502-5552-0603,음식점 > 카페 > 커피전문점,http://place.map.kakao.com/443737289,강서구
113099864,스타라이트,서울 강서구 마곡동 767-4,서울 강서구 마곡중앙로 111,37.56431091997083,126.82643948150373,,음식점 > 카페,http://place.map.kakao.com/113099864,강서구
1617052247,카페 코펠라,서울 강서구 마곡동 812,서울 강서구 마곡중앙로 136,37.5655223835791,126.82927204194,070-5213-1562,음식점 > 카페,http://place.map.kakao.com/1617052247,강서구
851969193,브루클린커피,서울 강서구 내발산동 652-1,서울 강서구 강서로52길 16,37.55759816261462,126.83891578352538,02-3664-5595,음식점 > 카페 > 커피전문점,http://place.map.kakao.com/851969193,강서구
998043750,비에이,서울 강서구 염창동 75-7,서울 강서구 양천로67길 93-23,37.55644014154895,126.87181818089219,010-9143-0879,음식점 > 카페,http://place.map.kakao.com/998043750,강서구
1605096216,스탠브루 마곡점,서울 강서구 마곡동 798-12,서울 강서구 마곡중앙1로 26,37.5586218018635,126.823849583739,,음식점 > 카페 > 커피전문점,http://place.map.kakao.com/1605096216,강서구
49282068,스타벅스 강서우장산점,서울 강서구 화곡동 1170,서울 강서구 강서로 231,37.5462444503704,126.836118023996,1522-3232,음식점 > 카페 > 커피전문점 > 스타벅스,http://place.map.kakao.com/49282068,강서구
261927199,세라젬웰카페 서울마곡직영점,서울 강서구 마곡동 801-1,서울 강서구 공항대로 242,37.55859201814433,126.83439784199084,02-6951-0625,음식점 > 카페 > 테마카페,http://place.map.kakao.com/261927199,강서구
1856894636,스타벅스 내발산점,서울 강서구 내발산동 668,서울 강서구 강서로 323,37.5546702794501,126.836552262812,1522-3232,음식점 > 카페 > 커피전문점 > 스타벅스,http://place.map.kakao.com/1856894636,강서구
1544599612,무아,서울 강서구 가양동 14-3,서울 강서구 양천로 489,37.5616325129337,126.854645139772,0502-5552-0047,음식점 > 카페,http://place.map.kakao.com/1544599612,강서구
946486339,메가MGC커피 화곡본동시장점,서울 강서구 화곡동 98-60,서울 강서구 까치산로4길 3,37.54233320826557,126.84409711233515,02-2603-3222,음식점 > 카페 > 커피전문점 > 메가MGC커피,http://place.map.kakao.com/946486339,강서구
474084339,스타벅스 가양역사거리점,서울 강서구 등촌동 628-9,서울 강서구 화곡로 416,37.5600251851564,126.855419019391,1522-3232,음식점 > 카페 > 커피전문점 > 스타벅스,http://place.map.kakao.com/474084339,강서구
16682720,고양이똥 브런치,서울 강서구 등촌동 647-62,서울 강서구 공항대로59가길 13,37.552028963264064,126.86464521931664,02-6013-1281,음식점 > 카페,http://place.map.kakao.com/16682720,강서구
650424536,어나더사이드,서울 강서구 내발산동 677,서울 강서구 강서로 318,37.554027793717474,126.83715007766467,02-3665-9877,음식점 > 카페,http://place.map.kakao.com/650424536,강서구
1689411161,메가MGC커피 화곡역점,서울 강서구 화곡동 1074-24,서울 강서구 화곡로 160,37.54114118423524,126.83938909249208,02-2065-3722,음식점 > 카페 > 커피전문점 > 메가MGC커피,http://place.map.kakao.com/1689411161,강서구
27500873,카페소금다방,서울 강서구 염창동 271,서울 강서구 공항대로61길 42,37.55260838395946,126.86629643861215,070-4242-3443,음식점 > 카페,http://place.map.kakao.com/27500873,강서구
1850086304,투썸플레이스 마곡역점,서울 강서구 마곡동 798-9,서울 강서구 마곡중앙로 59-9,37.558847001464024,126.82563727172985,02-2663-2228,음식점 > 카페 > 커피전문점 > 투썸플레이스,http://place.map.kakao.com/1850086304,강서구
802510891,카페폴,서울 관악구 봉천동 1621-36,서울 관악구 남부순환로234길 43,37.4775522640476,126.956726768485,070-8100-9091,음식점 > 카페,http://place.map.kakao.com/802510891,관악구
71268832,온고지신,서울 관악구 봉천동 1620-32,서울 관악구 관악로14길 101,37.4779167150772,126.95795435004281,02-6338-5977,음식점 > 카페,http://place.map.kakao.com/71268832,관악구
15617815,마티스커피 신림점,서울 관악구 신림동 1638-5,서울 관악구 신림로59길 15-6,37.4828295623514,126.928968842662,02-884-6321,음식점 > 카페 > 커피전문점,http://place.map.kakao.com/15617815,관악구
297508565,사생활 신림점,서울 관악구 신림동 496-37,서울 관악구 신사로14길 19,37.48778505268694,126.91648674637135,070-5033-7759,음식점 > 카페,http://place.map.kakao.com/297508565,관악구
12991036,투썸플레이스 서울대역중앙점,서울 관악구 봉천동 861-7,서울 관악구 봉천로 472,37.481957304123384,126.95207397114201,02-876-2352,음식점 > 카페 > 커피전문점 > 투썸플레이스,http://place.map.kakao.com/12991036,관악구
1543704352,크레이저커피 사당호텔카일점,서울 관악구 남현동 1062-10,서울 관악구 남현3길 71,37.47545019903564,126.98039554538148,0507-1318-7757,음식점 > 카페 > 커피전문점,http://place.map.kakao.com/1543704352,관악구
1099251112,디자이너리카페,서울 관악구 신림동 1465-12,서울 관악구 관천로 71-1,37.485044830857,126.92412069161948,02-868-7112,음식점 > 카페,http://place.map.kakao.com/1099251112,관악구
263900245,카페보니또 사당점,서울 관악구 남현동 1055-6,서울 관악구 남부순환로 2032,37.476029378906574,126.97475515550197,02-584-0011,음식점 > 카페,http://place.map.kakao.com/263900245,관악구
1529092927,로드트립,서울 관악구 신림동 1460-32,서울 관악구 관천로12길 7,37.4859807129732,126.925117008897,070-7627-0787,음식점 > 카페,http://place.map.kakao.com/1529092927,관악구
1175054334,테이블1629,서울 관악구 봉천동 947-15,서울 관악구 장군봉2길 32,37.4830476622358,126.938723802066,02-883-1629,음식점 > 카페,http://place.map.kakao.com/1175054334,관악구
1168065433,폼앤노말,서울 관악구 신림동 1432-119,서울 관악구 신림로67길 25,37.4857878034325,126.927862496624,,음식점 > 카페,http://place.map.kakao.com/1168065433,관악구
1326866926,다온죽카페 서울대역본점,서울 관악구 봉천동 37-87,서울 관악구 관악로 244,37.4859136806499,126.956875719164,02-878-0999,음식점 > 카페,http://place.map.kakao.com/1326866926,관악구
952094038,냥이주택,서울 관악구 봉천동 903-9,서울 관악구 은천로 70,37.48624035909797,126.94317836900245,0507-1406-1332,음식점 > 카페 > 테마카페 > 고양이카페,http://place.map.kakao.com/952094038,관악구
1289020581,저스트로맨틱,서울 관악구 신림동 116-23,서울 관악구 신림로 134,37.4716784490057,126.934839748363,,음식점 > 카페,http://place.map.kakao.com/1289020581,관악구
440912436,매머드익스프레스 봉천역점,서울 관악구 봉천동 926-33,서울 관악구 남부순환로 1733,37.48254146643842,126.94265429530832,070-8848-4019,음식점 > 카페 > 커피전문점 > 매머드익스프레스,http://place.map.kakao.com/440912436,관악구
1735123686,캐치카페 서울대,서울 관악구 봉천동 863-1,서울 관악구 관악로 165,37.4800661042531,126.952118141657,070-8860-7765,음식점 > 카페,http://place.map.kakao.com/1735123686,관악구
1239669500,백억커피 봉천역점,서울 관악구 봉천동 1522-11,서울 관악구 장군봉1길 24,37.4817515415007,126.941347901165,02-3285-0919,음식점 > 카페 > 커피전문점 > 백억커피,http://place.map.kakao.com/1239669500,관악구
1302305801,투썸플레이스 신림녹두거리점,서울 관악구 신림동 1515,서울 관악구 신림로 127,37.47082277702522,126.93536389240383,02-877-2525,음식점 > 카페 > 커피전문점 > 투썸플레이스,http://place.map.kakao.com/1302305801,관악구
936949903,스타벅스 신림녹두거리점,서울 관악구 신림동 1747,서울 관악구 신림로 99,37.4704053531146,126.93825481255969,1522-3232,음식점 > 카페 > 커피전문점 > 스타벅스,http://place.map.kakao.com/936949903,관악구
1850085124,시트론오피스,서울 관악구 봉천동 1612-51,서울 관악구 남부순환로234길 18,37.4785650843053,126.956961343654,010-8387-3905,음식점 > 카페,http://place.map.kakao.com/1850085124,관악구
1841391165,산호,서울 관악구 봉천동 944-34,서울 관악구 남부순환로 1709,37.4832728047422,126.940269208388,0503-7152-7367,음식점 > 카페,http://place.map.kakao.com/1841391165,관악구
246370372,커피볶는여자,서울 관악구 봉천동 1613-4,서울 관악구 관악로14가길 2,37.478335020518536,126.95612824582771,,음식점 > 카페 > 커피전문점,http://place.map.kakao.com/246370372,관악구
201828537,트램서울,서울 관악구 봉천동 1603-9,서울 관악구 남부순환로226길 23-10,37.4793290149184,126.954230543868,02-882-6350,음식점 > 카페 > 커피전문점,http://place.map.kakao.com/201828537,관악구
1591322212,일커피,서울 관악구 봉천동 1568-1,서울 관악구 쑥고개로 123,37.479038208597906,126.95031326104288,02-875-3545,음식점 > 카페,http://place.map.kakao.com/1591322212,관악구
1570780900,백억커피 구로점,서울 관악구 신림동 1666,서울 관악구 시흥대로160길 12,37.4815860341867,126.901198642445,02-6953-1189,음식점 > 카페 > 커피전문점 > 백억커피,http://place.map.kakao.com/1570780900,관악구
687890709,스태츠,서울 관악구 봉천동 34-39,서울 관악구 관악로 224-1,37.4845824655084,126.955724338018,,음식점 > 카페,http://place.map.kakao.com/687890709,관악구
784815881,스타벅스 신림DT점,서울 관악구 신림동 564-12,서울 관악구 남부순환로 1419,37.480980972238186,126.90842516192575,,음식점 > 카페 > 커피전문점 > 스타벅스,http://place.map.kakao.com/784815881,관악구
1150937270,행운당,서울 관악구 봉천동 1671-35,서울 관악구 행운1길 40,37.4806537784528,126.95738864481214,,음식점 > 카페 > 테마카페 > 디저트카페,http://place.map.kakao.com/1150937270,관악구
21883649,공차 서울대입구역점,서울 관악구 봉천동 856-5,서울 관악구 관악로 164,37.47948969035852,126.9526939782055,02-877-2650,음식점 > 카페 > 공차,http://place.map.kakao.com/21883649,관악구
218335590,오니베이크샵,서울 관악구 봉천동 866-7,서울 관악구 관악로13길 20,37.4794818258016,126.951081766353,010-2222-3333,음식점 > 카페,http://place.map.kakao.com/218335590,관악구
17100709,할리스 신림점,서울 관악구 신림동 1432-72,서울 관악구 신림로 353-1,37.4859400339698,126.929287012108,02-877-0019,음식점 > 카페 > 커피전문점 > 할리스,http://place.map.kakao.com/17100709,관악구
863483135,빽다방 보라매타운점,서울 관악구 봉천동 729-24,서울 관악구 보라매로5가길 7,37.49172933042801,126.92541544774396,02-832-9706,음식점 > 카페 > 커피전문점 > 빽다방,http://place.map.kakao.com/863483135,관악구
2033630717,메가MGC커피 낙성대역점,서울 관악구 봉천동 1685-20,서울 관악구 남부순환로 1913,37.4779649464917,126.96202661456,02-875-0656,음식점 > 카페 > 커피전문점 > 메가MGC커피,http://place.map.kakao.com/2033630717,관악구
1974174375,스타벅스 보라매대교빌딩점,서울 관악구 봉천동 729-21,서울 관악구 보라매로3길 23,37.491190595489165,126.9255222751619,1522-3232,음식점 > 카페 > 커피전문점 > 스타벅스,http://place.map.kakao.com/1974174375,관악구
759485398,블러커피,서울 관악구 신림동 1432-136,서울 관악구 신림동5길 31,37.4858921820228,126.927636259604,0502-5550-7366,음식점 > 카페,http://place.map.kakao.com/759485398,관악구
2053996654,톤즈카페,서울 관악구 봉천동 1671-4,서울 관악구 행운1길 50,37.480957312862785,126.9570967753045,,음식점 > 카페,http://place.map.kakao.com/2053996654,관악구
2129298932,2층사무실,서울 관악구 봉천동 944-13,서울 관악구 남부순환로 1701,37.4836246614019,126.939409634898,,음식점 > 카페,http://place.map.kakao.com/2129298932,관악구
1395420155,나인에스프레소,서울 관악구 봉천동 688-2,서울 관악구 봉천로13길 63,37.491181676213984,126.9316340581408,02-876-7733,음식점 > 카페,http://place.map.kakao.com/1395420155,관악구
27279304,아모르미오,서울 관악구 봉천동 1679-8,서울 관악구 행운2길 20,37.4790815416511,126.960036227286,070-4306-5006,음식점 > 카페,http://place.map.kakao.com/27279304,관악구
2064476251,듀레스트,서울 관악구 봉천동 1610-3,서울 관악구 관악로14길 50,37.4785716641999,126.95527000248,02-6013-8569,음식점 > 카페 > 커피전문점,http://place.map.kakao.com/2064476251,관악구
1820763284,인투커피,서울 관악구 신림동 530-1,서울 관악구 난곡로 331,37.48361520097621,126.91399378448916,02-6083-1170,음식점 > 카페 > 커피전문점,http://place.map.kakao.com/1820763284,관악구
245837768,컴포즈커피 봉천e편한세상점,서울 관악구 봉천동 1540-41,서울 관악구 쑥고개로 70,37.479360730655,126.944171709897,02-882-4123,음식점 > 카페 > 커피전문점 > 컴포즈커피,http://place.map.kakao.com/245837768,관악구
1459816213,팃빗,서울 관악구 봉천동 1613-5,서울 관악구 관악로14가길 6,37.4782619655767,126.955931569623,0507-1402-4719,음식점 > 카페,http://place.map.kakao.com/1459816213,관악구
1816904047,메가MGC커피 신림신화교점,서울 관악구 신림동 408-74,서울 관악구 신림로 201,37.4756725064872,126.93627205316459,070-8808-0908,음식점 > 카페 > 커피전문점 > 메가MGC커피,http://place.map.kakao.com/1816904047,관악구
1098022416,백억커피 낙성대점,서울 관악구 봉천동 1642-16,서울 관악구 인헌길 35,37.4738866497948,126.966935059196,02-3285-0426,음식점 > 카페 > 커피전문점 > 백억커피,http://place.map.kakao.com/1098022416,관악구
420350631,더이퀼리브리엄커피,서울 광진구 자양동 7-30,서울 광진구 아차산로30길 7,37.540353357206705,127.06782243010946,010-5551-6073,음식점 > 카페 > 커피전문점,http://place.map.kakao.com/420350631,광진구
61909173,아르무아,서울 광진구 화양동 5-32,서울 광진구 동일로22길 117-27,37.5417661045602,127.070924092537,02-463-9981,음식점 > 카페,http://place.map.kakao.com/61909173,광진구
1846062551,바이닐 한강,서울 광진구 자양동 126-1,,37.528803328554375,127.06641477775109,070-4160-8230,음식점 > 카페 > 테마카페,http://place.map.kakao.com/1846062551,광진구
18263855,마우스래빗,서울 광진구 화양동 5-14,서울 광진구 능동로11길 10,37.54199136790744,127.07090167532328,02-462-4015,음식점 > 카페,http://place.map.kakao.com/18263855,광진구
287949141,넥스트에디션 건대2호점,서울 광진구 자양동 17-5,서울 광진구 아차산로 192,37.5415568959643,127.064967555237,0507-417-8580,음식점 > 카페 > 테마카페,http://place.map.kakao.com/287949141,광진구
1926044933,도우터,서울 광진구 화양동 11-17,서울 광진구 아차산로31길 40,37.54269097771746,127.07017475729558,02-464-0559,음식점 > 카페,http://place.map.kakao.com/1926044933,광진구
172838723,인마이험블,서울 광진구 중곡동 627-3,서울 광진구 면목로7길 10,37.5596245066137,127.077124021046,070-8657-4905,음식점 > 카페,http://place.map.kakao.com/172838723,광진구
19925444,칼레오 커피로스터스,서울 광진구 자양동 226-42,서울 광진구 아차산로 291,37.53874138788133,127.0753849193456,010-7766-7531,음식점 > 카페 > 커피전문점,http://place.map.kakao.com/19925444,광진구
1032871178,괴르츠,서울 광진구 광장동 127,서울 광진구 아차산로78길 110,37.549984631594214,127.11019449733223,02-447-4360,음식점 > 카페,http://place.map.kakao.com/1032871178,광진구
519082124,뚝방길홍차가게 본점,서울 광진구 자양동 589-20,서울 광진구 자양강변길 277,37.52997922239479,127.07385443646811,02-512-0189,음식점 > 카페,http://place.map.kakao.com/519082124,광진구
26576265,옥루몽 어린이대공원점,서울 광진구 화양동 111-124,서울 광진구 능동로 183,37.54701724995315,127.07366755366816,02-466-9700,음식점 > 카페 > 테마카페 > 디저트카페,http://place.map.kakao.com/26576265,광진구
19790882,카페피아트121,서울 광진구 광장동 121,서울 광진구 아차산로78길 7,37.5502601292374,127.109449142533,02-457-1012,음식점 > 카페,http://place.map.kakao.com/19790882,광진구
109883906,베이글카페 화양점,서울 광진구 화양동 17-50,서울 광진구 군자로7길 4,37.5464987409217,127.069937296211,02-463-6261,음식점 > 카페 > 테마카페 > 디저트카페,http://place.map.kakao.com/109883906,광진구
1328447466,모츠커피,서울 광진구 화양동 15-20,서울 광진구 군자로3길 14,37.5446586020451,127.070440257484,070-4015-5501,음식점 > 카페,http://place.map.kakao.com/1328447466,광진구
757366145,레이디언트커피,서울 광진구 중곡동 142-36,서울 광진구 능동로38길 41,37.557084838616014,127.08210906129733,0502-5553-0547,음식점 > 카페,http://place.map.kakao.com/757366145,광진구
1716278803,차백도 건대역점,서울 광진구 화양동 5-106,서울 광진구 능동로 111,37.5410633639746,127.07085893046,,음식점 > 카페,http://place.map.kakao.com/1716278803,광진구
1771058655,스타벅스 올림픽대교북단점,서울 광진구 구의동 200-2,서울 광진구 광나루로 608,37.5411291074614,127.095242048653,1522-3232,음식점 > 카페 > 커피전문점 > 스타벅스,http://place.map.kakao.com/1771058655,광진구
14681527,아이크스커피,서울 광진구 구의동 246-34,서울 광진구 자양로18길 12-4,37.5373316970539,127.084167020039,02-452-8778,음식점 > 카페 > 커피전문점,http://place.map.kakao.com/14681527,광진구
606933069,플라이팬커피,서울 광진구 자양동 64-11,서울 광진구 능동로3길 14,37.533669471586684,127.06670646936709,,음식점 > 카페 > 커피전문점,http://place.map.kakao.com/606933069,광진구
501741750,인덱스숍,서울 광진구 자양동 17-1,서울 광진구 아차산로 200,37.540983277454266,127.0660182347036,02-2122-1259,음식점 > 카페,http://place.map.kakao.com/501741750,광진구
645050666,비밀의화원 포레스트,서울 광진구 화양동 8-8,서울 광진구 동일로24길 102,37.54221687504413,127.07047190620146,02-468-4440,음식점 > 카페 > 테마카페,http://place.map.kakao.com/645050666,광진구
12508558,할리스 건대입구점,서울 광진구 화양동 7-13,서울 광진구 아차산로 235,37.54061365467608,127.06952898165626,02-463-1983,음식점 > 카페 > 커피전문점 > 할리스,http://place.map.kakao.com/12508558,광진구
25413056,탐앤탐스 군자역점,서울 광진구 능동 279-3,서울 광진구 능동로 296,37.5559957034226,127.07922192520827,02-3437-0279,음식점 > 카페 > 커피전문점 > 탐앤탐스,http://place.map.kakao.com/25413056,광진구
1183453835,디저트39 건대점,서울 광진구 자양동 7-1,서울 광진구 아차산로 238,37.5399829258444,127.069578181958,02-466-1339,음식점 > 카페 > 테마카페 > 디저트카페 > 디저트39,http://place.map.kakao.com/1183453835,광진구
1375491764,카페비엔베니도,서울 광진구 구의동 75-13,서울 광진구 천호대로 674,37.5508632101314,127.089862055248,02-6083-5283,음식점 > 카페,http://place.map.kakao.com/1375491764,광진구
996505136,비밀의화원 건대점,서울 광진구 화양동 7-13,서울 광진구 아차산로 235,37.54062085734,127.069538040418,02-499-1119,음식점 > 카페 > 테마카페,http://place.map.kakao.com/996505136,광진구
1017964919,도쿄빙수 건대직영점,서울 광진구 화양동 10-2,서울 광진구 아차산로31길 45,37.5430424082844,127.070106062394,02-466-2012,음식점 > 카페 > 테마카페 > 디저트카페,http://place.map.kakao.com/1017964919,광진구
1544788324,카페후르츠,서울 광진구 중곡동 231-6,서울 광진구 동일로70길 53-5,37.5642339843974,127.079864493409,0503-7151-9019,음식점 > 카페,http://place.map.kakao.com/1544788324,광진구
382585102,미어캣족장,서울 광진구 자양동 9-31,서울 광진구 동일로20길 72,37.5402256252868,127.067455707351,0503-7152-9360,음식점 > 카페 > 테마카페 > 고양이카페,http://place.map.kakao.com/382585102,광진구
560527159,흐릇,서울 광진구 화양동 15-7,서울 광진구 군자로 19,37.5450006290323,127.071028998518,,음식점 > 카페,http://place.map.kakao.com/560527159,광진구
17884751,스타벅스 구의역,서울 광진구 구의동 246-15,서울 광진구 아차산로 373,37.5370002130577,127.084048976208,1522-3232,음식점 > 카페 > 커피전문점 > 스타벅스,http://place.map.kakao.com/17884751,광진구
46472248,저스트런잇,서울 광진구 자양동 855,서울 광진구 능동로 18,37.5325174193161,127.067713508949,,음식점 > 카페 > 테마카페 > 디저트카페,http://place.map.kakao.com/46472248,광진구
1720831078,컴포즈커피 자양하늘채점,서울 광진구 자양동 659-31,서울 광진구 뚝섬로 671,37.53195917022409,127.08397091080833,02-3437-9981,음식점 > 카페 > 커피전문점 > 컴포즈커피,http://place.map.kakao.com/1720831078,광진구
1016102948,머더파커 건대1호점,서울 광진구 화양동 48-3,서울 광진구 아차산로 213,37.54137814914319,127.06720102200049,02-497-2999,음식점 > 카페 > 테마카페,http://place.map.kakao.com/1016102948,광진구
389971976,하프커피익스프레스 군자역점,서울 광진구 군자동 1-7,서울 광진구 능동로 277-1,37.5548856419294,127.077917003098,070-7525-8067,음식점 > 카페 > 커피전문점 > 하프커피,http://place.map.kakao.com/389971976,광진구
98016856,윤키,서울 광진구 중곡동 142-21,서울 광진구 능동로38길 27,37.5573429524973,127.08149027072574,0502-5553-0774,음식점 > 카페 > 테마카페 > 디저트카페,http://place.map.kakao.com/98016856,광진구
957869663,메가MGC커피 자양시장점,서울 광진구 자양동 612-60,서울 광진구 자양로15길 18,37.5358209681537,127.082538316259,02-455-5945,음식점 > 카페 > 커피전문점 > 메가MGC커피,http://place.map.kakao.com/957869663,광진구
1540990560,최가회관,서울 광진구 화양동 12-34,서울 광진구 능동로13길 30,37.5433664644636,127.070615563663,02-465-7998,음식점 > 카페 > 커피전문점,http://place.map.kakao.com/1540990560,광진구
119686696,카푸베어,서울 광진구 화양동 3-21,서울 광진구 능동로 143,37.5435854372835,127.072057370029,0503-7151-0845,음식점 > 카페,http://place.map.kakao.com/119686696,광진구
1871684996,사부커피 구의역점,서울 광진구 구의동 246-1,서울 광진구 아차산로55길 11,37.53802564478331,127.08641603072864,0503-5260-6158,음식점 > 카페 > 커피전문점,http://place.map.kakao.com/1871684996,광진구
808888271,엔제리너스 르엘캐슬갤러리점,서울 광진구 자양동 424,서울 광진구 강변북로 2250,37.5276170308852,127.07052265405,,음식점 > 카페 > 커피전문점 > 엔제리너스,http://place.map.kakao.com/808888271,광진구
1317526944,스타벅스 건국대점,서울 광진구 화양동 5-45,서울 광진구 능동로 117,37.5415948126772,127.071093658871,1522-3232,음식점 > 카페 > 커피전문점 > 스타벅스,http://place.map.kakao.com/1317526944,광진구
1674093966,소소한그날,서울 광진구 구의동 222-53,서울 광진구 광나루로40길 93,37.5405431290081,127.088723817793,010-5603-7144,음식점 > 카페,http://place.map.kakao.com/1674093966,광진구
1033326908,향기나는커피 건대본점,서울 광진구 자양동 1-2,서울 광진구 능동로 95,37.5395230760942,127.070152552921,02-2205-5454,음식점 > 카페,http://place.map.kakao.com/1033326908,광진구
399471296,이르,서울 광진구 자양동 553-45,서울 광진구 능동로4길 61,37.5319085804785,127.070388666561,02-455-5859,음식점 > 카페 > 커피전문점,http://place.map.kakao.com/399471296,광진구
14984169,메이비,서울 구로구 구로동 1124-49,서울 구로구 디지털로32나길 51,37.48495069398807,126.90047623702111,02-859-3073,음식점 > 카페,http://place.map.kakao.com/14984169,구로구
2105076529,콘피,서울 구로구 신도림동 640,서울 구로구 경인로66길 5,37.507716004045,126.886992632734,02-2069-1222,음식점 > 카페 > 커피전문점,http://place.map.kakao.com/2105076529,구로구
611177110,투썸플레이스 구로구청사거리점,서울 구로구 구로동 83-4,서울 구로구 가마산로 250,37.494852083915426,126.88861099518508,02-852-3431,음식점 > 카페 > 커피전문점 > 투썸플레이스,http://place.map.kakao.com/611177110,구로구
854083060,카페 라임라빋,서울 구로구 구로동 30-29,서울 구로구 공원로6나길 29-3,37.5043214239284,126.891264864778,02-585-6090,음식점 > 카페,http://place.map.kakao.com/854083060,구로구
2123211343,두즈커피,서울 구로구 가리봉동 136-98,서울 구로구 남부순환로107길 5,37.4791736719863,126.893521776424,010-7292-6531,음식점 > 카페 > 커피전문점,http://place.map.kakao.com/2123211343,구로구
2067074487,투썸플레이스 구로역점,서울 구로구 구로동 569-8,서울 구로구 새말로 19,37.50230150939031,126.88292605183979,02-837-7770,음식점 > 카페 > 커피전문점 > 투썸플레이스,http://place.map.kakao.com/2067074487,구로구
158853388,스타벅스 신도림힐스테이트점,서울 구로구 신도림동 433-24,서울 구로구 경인로 625,37.506934458328,126.88473972741421,1522-3232,음식점 > 카페 > 커피전문점 > 스타벅스,http://place.map.kakao.com/158853388,구로구
1539986711,윌리엔버터,서울 구로구 고척동 185-34,서울 구로구 고척로60길 13,37.5057917326827,126.859535269817,010-2486-2920,음식점 > 카페,http://place.map.kakao.com/1539986711,구로구
84042619,보은하다,서울 구로구 신도림동 338,서울 구로구 경인로67길 23,37.5104961263515,126.889450746032,,음식점 > 카페,http://place.map.kakao.com/84042619,구로구
38140394,397카페,서울 구로구 신도림동 397-1,서울 구로구 신도림로 25,37.5073248173585,126.878665624629,,음식점 > 카페,http://place.map.kakao.com/38140394,구로구
418082712,메가MGC커피 구로디지털단지점,서울 구로구 구로동 197-28,서울 구로구 디지털로31길 41,37.4852855904064,126.892943243258,010-7440-9797,음식점 > 카페 > 커피전문점 > 메가MGC커피,http://place.map.kakao.com/418082712,구로구
19346195,까페봉주르마담,서울 구로구 궁동 279,서울 구로구 오리로 1316,37.4988304713765,126.829355012326,010-5152-9991,음식점 > 카페,http://place.map.kakao.com/19346195,구로구
1039862006,투썸플레이스 구로대륭1차점,서울 구로구 구로동 212-8,서울 구로구 디지털로 288,37.4837840865324,126.89548822037541,02-866-2644,음식점 > 카페 > 커피전문점 > 투썸플레이스,http://place.map.kakao.com/1039862006,구로구
552379058,메가MGC커피 구로고척점,서울 구로구 고척동 189,서울 구로구 고척로 239,37.50673162879571,126.85966018042855,02-2060-6222,음식점 > 카페 > 커피전문점 > 메가MGC커피,http://place.map.kakao.com/552379058,구로구
14833646,투썸플레이스 오류역점,서울 구로구 오류동 39-6,서울 구로구 경인로 199-2,37.49595742907223,126.84319843511553,02-2613-2244,음식점 > 카페 > 커피전문점 > 투썸플레이스,http://place.map.kakao.com/14833646,구로구
2041426645,투썸플레이스 동양미래대점,서울 구로구 고척동 52-217,서울 구로구 경인로47길 34-1,37.5009052131044,126.866202085528,02-2615-7557,음식점 > 카페 > 커피전문점 > 투썸플레이스,http://place.map.kakao.com/2041426645,구로구
545212902,ㅋㅋ다방,서울 구로구 구로동 832,서울 구로구 디지털로26길 38,37.48002215540607,126.89523907622163,,음식점 > 카페,http://place.map.kakao.com/545212902,구로구
649227503,히어로스터 신도림점,서울 구로구 신도림동 382-2,서울 구로구 경인로63길 21-8,37.5084336060668,126.88461300991,,음식점 > 카페,http://place.map.kakao.com/649227503,구로구
275760686,오피카 로스터리,서울 구로구 구로동 197-12,서울 구로구 디지털로31길 61,37.4858898784506,126.891638703511,02-2039-7185,음식점 > 카페,http://place.map.kakao.com/275760686,구로구
1890010973,투썸플레이스 구로대륭7차점,서울 구로구 구로동 170-10,서울 구로구 디지털로33길 48,37.4872545782723,126.894261095255,02-853-3336,음식점 > 카페 > 커피전문점 > 투썸플레이스,http://place.map.kakao.com/1890010973,구로구
235752396,아마렐로 에스프레소바,서울 구로구 구로동 431,서울 구로구 가마산로21길 9,37.494272561816,126.885599379966,010-7556-4652,음식점 > 카페,http://place.map.kakao.com/235752396,구로구
1648849049,피스오브딥,서울 구로구 개봉동 288-17,서울 구로구 개봉로10길 12-9,37.4872579493443,126.857204547821,0507-1381-0842,음식점 > 카페,http://place.map.kakao.com/1648849049,구로구
1756118098,카페칼리스타,서울 구로구 구로동 197-22,서울 구로구 디지털로31길 20,37.4854072470605,126.89396520049736,010-4468-2804,음식점 > 카페,http://place.map.kakao.com/1756118098,구로구
1295293600,이디야커피 신도림메르디앙점,서울 구로구 신도림동 387-3,서울 구로구 신도림로 65,37.50942121021687,126.88198182700268,02-3667-3350,음식점 > 카페 > 커피전문점 > 이디야커피,http://place.map.kakao.com/1295293600,구로구
21531311,이름없는가게,서울 구로구 개봉동 363-8,서울 구로구 개봉로1나길 52,37.48554017038737,126.85243183656095,02-2613-9488,음식점 > 카페 > 테마카페 > 디저트카페,http://place.map.kakao.com/21531311,구로구
370220644,더벤티 신도림이편한점,서울 구로구 신도림동 648,서울 구로구 경인로59길 7,37.50567144218129,126.8831017465405,070-8691-0875,음식점 > 카페 > 커피전문점 > 더벤티,http://place.map.kakao.com/370220644,구로구
1508011010,글로우,서울 구로구 항동 236,,37.4820324813052,126.821082005038,010-8783-9880,음식점 > 카페 > 테마카페 > 디저트카페,http://place.map.kakao.com/1508011010,구로구
2032926880,더세인트41,서울 구로구 신도림동 692,서울 구로구 경인로 662,37.5091557299289,126.889769412278,02-2211-0041,음식점 > 카페,http://place.map.kakao.com/2032926880,구로구
172855918,메가MGC커피 개봉푸르지오점,서울 구로구 개봉동 126-33,서울 구로구 고척로 126,37.50198950259557,126.84790177937667,02-2060-7267,음식점 > 카페 > 커피전문점 > 메가MGC커피,http://place.map.kakao.com/172855918,구로구
940078622,백억커피 개봉점,서울 구로구 개봉동 331-1,서울 구로구 개봉로17길 31,37.4914393246752,126.85409263488654,070-7814-1778,음식점 > 카페 > 커피전문점 > 백억커피,http://place.map.kakao.com/940078622,구로구
1342180005,에버애프터,서울 구로구 구로동 27-11,서울 구로구 새말로18길 36-10,37.50534683284039,126.89231970948661,070-7543-1098,음식점 > 카페 > 커피전문점,http://place.map.kakao.com/1342180005,구로구
500561873,9로평상,서울 구로구 항동 238-3,서울 구로구 서해안로 2134,37.48214805867979,126.82607570314381,,음식점 > 카페 > 테마카페 > 디저트카페,http://place.map.kakao.com/500561873,구로구
27330193,위트러스트커피,서울 구로구 구로동 811,,37.48487292100259,126.89907657356373,,음식점 > 카페 > 커피전문점,http://place.map.kakao.com/27330193,구로구
1669352826,카페우물,서울 구로구 구로동 33-11,서울 구로구 공원로6나길 5-6,37.503831229112606,126.89023866995588,0503-7150-7645,음식점 > 카페,http://place.map.kakao.com/1669352826,구로구
1412927529,매머드익스프레스 구로코오롱타워2차점,서울 구로구 구로동 222-8,서울 구로구 디지털로30길 31,37.48303501190186,126.89612807535283,1533-1694,음식점 > 카페 > 커피전문점 > 매머드익스프레스,http://place.map.kakao.com/1412927529,구로구
642697440,카페만월경 남구로점,서울 구로구 구로동 1265,서울 구로구 도림로 59,37.4893048551904,126.889860779105,010-4768-9546,음식점 > 카페 > 테마카페 > 무인카페 > 카페만월경,http://place.map.kakao.com/642697440,구로구
527979817,사사커피LAB,서울 구로구 신도림동 426-30,서울 구로구 경인로 620,37.506312017251,126.884896761122,,음식점 > 카페 > 커피전문점,http://place.map.kakao.com/527979817,구로구
346410950,오브베이크,서울 구로구 구로동 1127-26,서울 구로구 디지털로32가길 9,37.482726046529635,126.89934402997072,010-8328-4253,음식점 > 카페,http://place.map.kakao.com/346410950,구로구
433152454,소디스에스프레소바 서울구로직영점,서울 구로구 구로동 235-3,서울 구로구 디지털로26길 43,37.4810071321156,126.894422531715,,음식점 > 카페 > 커피전문점,http://place.map.kakao.com/433152454,구로구
2001456774,매머드익스프레스 신도림점,서울 구로구 신도림동 337,서울 구로구 경인로 661,37.509682433698465,126.88840120830739,,음식점 > 카페 > 커피전문점 > 매머드익스프레스,http://place.map.kakao.com/2001456774,구로구
948211716,목천,서울 구로구 구로동 779-39,서울 구로구 도림로 44-4,37.4878464118488,126.889204845725,,음식점 > 카페,http://place.map.kakao.com/948211716,구로구
298769758,폴바셋 구로G타워점,서울 구로구 구로동 832,서울 구로구 디지털로26길 38,37.48028344059988,126.89523079725996,02-6077-3938,음식점 > 카페 > 커피전문점 > 폴바셋,http://place.map.kakao.com/298769758,구로구
408751492,미지,서울 구로구 고척동 239-14,서울 구로구 고척로51길 82,37.5073433772671,126.852244159559,,음식점 > 카페,http://place.map.kakao.com/408751492,구로구
25115111,스타벅스 오류동역점,서울 구로구 오류동 55-50,서울 구로구 경인로 216,37.4962245157872,126.844857947147,1522-3232,음식점 > 카페 > 커피전문점 > 스타벅스,http://place.map.kakao.com/25115111,구로구
1082070696,카페아르테,서울 구로구 구로동 30-39,서울 구로구 새말로16길 17,37.5048534036645,126.890707656547,,음식점 > 카페,http://place.map.kakao.com/1082070696,구로구
1252555129,투썸플레이스 가산하이엔드클래식점,서울 금천구 가산동 219-6,서울 금천구 벚꽃로24길 26,37.47386451915164,126.88916104974741,02-2085-0155,음식점 > 카페 > 커피전문점 > 투썸플레이스,http://place.map.kakao.com/1252555129,금천구
26887407,할리스 가산디지털단지점,서울 금천구 가산동 459-11,서울 금천구 가산디지털1로 186,37.4814256172394,126.881556667445,02-2028-7111,음식점 > 카페 > 커피전문점 > 할리스,http://place.map.kakao.com/26887407,금천구
13064337,투썸플레이스 가산아울렛점,서울 금천구 가산동 50-3,서울 금천구 벚꽃로 298,37.481097162740575,126.88378788070094,02-2083-5678,음식점 > 카페 > 커피전문점 > 투썸플레이스,http://place.map.kakao.com/13064337,금천구
1652547690,인크커피 가산점,서울 금천구 가산동 544-6,서울 금천구 가산디지털2로 127-20,37.4793398430456,126.878073238144,02-854-7200,음식점 > 카페 > 커피전문점,http://place.map.kakao.com/1652547690,금천구
1573224768,메가MGC커피 가산어반워크점,서울 금천구 가산동 451-1,서울 금천구 가산디지털2로 135,37.47987994472613,126.87845902313948,02-6177-7575,음식점 > 카페 > 커피전문점 > 메가MGC커피,http://place.map.kakao.com/1573224768,금천구
1428789023,메리메이,서울 금천구 시흥동 790-61,서울 금천구 독산로38길 84,37.4625617973079,126.905219402731,02-809-5114,음식점 > 카페,http://place.map.kakao.com/1428789023,금천구
508596460,할리스 가산대륭22차점,서울 금천구 가산동 371-63,서울 금천구 가산디지털1로 146,37.4787025529177,126.88314942271,02-2059-1131,음식점 > 카페 > 커피전문점 > 할리스,http://place.map.kakao.com/508596460,금천구
1969224214,원두서점,서울 금천구 가산동 547-59,서울 금천구 서부샛길 578,37.47814846858824,126.87697174122982,02-6406-0588,음식점 > 카페,http://place.map.kakao.com/1969224214,금천구
2049093626,카페성수,서울 금천구 독산동 901-16,서울 금천구 독산로108길 93,37.4802787463765,126.909151863171,02-836-7775,음식점 > 카페,http://place.map.kakao.com/2049093626,금천구
8567520,투썸플레이스 가산디지털점,서울 금천구 가산동 459-11,서울 금천구 가산디지털1로 186,37.48152413149771,126.88186064793325,02-866-9308,음식점 > 카페 > 커피전문점 > 투썸플레이스,http://place.map.kakao.com/8567520,금천구
1126956077,블루샥 가산DK점,서울 금천구 가산동 459-14,서울 금천구 가산디지털2로 144,37.48086282157544,126.87921719911878,02-858-1230,음식점 > 카페 > 커피전문점 > 블루샥,http://place.map.kakao.com/1126956077,금천구
1606182607,빽다방 금천정훈단지점,서울 금천구 독산동 1037-31,서울 금천구 독산로 211,37.4655063621709,126.901979419085,070-8648-1140,음식점 > 카페 > 커피전문점 > 빽다방,http://place.map.kakao.com/1606182607,금천구
663967833,파스쿠찌 가산YPP사옥점,서울 금천구 가산동 327-30,서울 금천구 가산디지털2로 24,37.4709561148445,126.88359670863773,02-2106-6887,음식점 > 카페 > 커피전문점 > 파스쿠찌,http://place.map.kakao.com/663967833,금천구
965660169,영커피 가산이앤씨7점,서울 금천구 가산동 60-44,서울 금천구 디지털로9길 46,37.480057905833,126.887098741789,02-839-8999,음식점 > 카페 > 커피전문점 > 영커피,http://place.map.kakao.com/965660169,금천구
818472616,매머드익스프레스 금천롯데캐슬2차점,서울 금천구 독산동 1150,서울 금천구 벚꽃로 30,37.458021329479315,126.89428079363144,,음식점 > 카페 > 커피전문점 > 매머드익스프레스,http://place.map.kakao.com/818472616,금천구
9207658,스몰타운,서울 금천구 가산동 505-14,서울 금천구 가산디지털1로 212,37.484433992002,126.880570504771,02-2082-7609,음식점 > 카페 > 커피전문점,http://place.map.kakao.com/9207658,금천구
1469997287,스타벅스 가산어반워크점,서울 금천구 가산동 451-1,서울 금천구 가산디지털2로 135,37.4800209461231,126.878015601766,1522-3232,음식점 > 카페 > 커피전문점 > 스타벅스,http://place.map.kakao.com/1469997287,금천구
272140461,빈웍스,서울 금천구 가산동 371-106,서울 금천구 가산디지털1로 181,37.48120090620592,126.8803054344509,,음식점 > 카페 > 커피전문점,http://place.map.kakao.com/272140461,금천구
1066251091,메가MGC커피 금천독산4동점,서울 금천구 독산동 1019-4,서울 금천구 독산로 243,37.4686140191553,126.902064664967,02-861-7725,음식점 > 카페 > 커피전문점 > 메가MGC커피,http://place.map.kakao.com/1066251091,금천구
257329193,옐로우캔 독산직영점,서울 금천구 독산동 973-6,서울 금천구 독산로 325,37.47589794305455,126.90335188170066,,음식점 > 카페,http://place.map.kakao.com/257329193,금천구
1322732058,그레이핍플가산 가산디지털단지점,서울 금천구 가산동 371-106,서울 금천구 가산디지털1로 181,37.4814253462503,126.880393264451,02-6267-2580,음식점 > 카페 > 그레이핍플,http://place.map.kakao.com/1322732058,금천구
502261381,더벤티 독산점,서울 금천구 독산동 286-14,서울 금천구 시흥대로122길 7,37.4695662608745,126.898708285284,02-6489-1566,음식점 > 카페 > 커피전문점 > 더벤티,http://place.map.kakao.com/502261381,금천구
1269960285,고아웃위드,서울 금천구 독산동 1069-20,서울 금천구 시흥대로84길 37,37.4607782808837,126.901409135651,010-2365-6520,음식점 > 카페 > 테마카페 > 디저트카페,http://place.map.kakao.com/1269960285,금천구
197682732,블루룸,서울 금천구 가산동 60-5,서울 금천구 디지털로9길 32,37.4794924828728,126.887529215358,0503-7152-9327,음식점 > 카페,http://place.map.kakao.com/197682732,금천구
689537775,온초점,서울 금천구 독산동 959,서울 금천구 남부순환로124길 17,37.478803381627905,126.90296600514935,010-8576-3111,음식점 > 카페 > 테마카페 > 디저트카페,http://place.map.kakao.com/689537775,금천구
27388194,모나드커피로스터스,서울 금천구 시흥동 911-6,서울 금천구 금하로24길 5,37.450750439189,126.908669975489,010-7516-0892,음식점 > 카페 > 커피전문점,http://place.map.kakao.com/27388194,금천구
2090446816,스타벅스 금천시흥점,서울 금천구 시흥동 904-22,서울 금천구 시흥대로 164,37.4489620586813,126.903175211658,,음식점 > 카페 > 커피전문점 > 스타벅스,http://place.map.kakao.com/2090446816,금천구
1855903935,카페멀스,서울 금천구 시흥동 220-29,서울 금천구 탑골로 23,37.4520384730708,126.91168032152,0507-0289-3503,음식점 > 카페,http://place.map.kakao.com/1855903935,금천구
1576301094,마중물,서울 금천구 가산동 458-2,서울 금천구 가산디지털2로 142,37.480574210045354,126.87893501298863,010-9600-8957,음식점 > 카페 > 커피전문점,http://place.map.kakao.com/1576301094,금천구
1975419640,투썸플레이스 가산로데오점,서울 금천구 가산동 60-24,서울 금천구 벚꽃로 254,37.477560846754,126.88578313799952,02-861-1017,음식점 > 카페 > 커피전문점 > 투썸플레이스,http://place.map.kakao.com/1975419640,금천구
1183978562,투썸플레이스 독산사거리점,서울 금천구 독산동 287-2,서울 금천구 시흥대로 422,37.4711086451693,126.898538895905,02-858-2329,음식점 > 카페 > 커피전문점 > 투썸플레이스,http://place.map.kakao.com/1183978562,금천구
1354396536,할리스 시흥사거리점,서울 금천구 시흥동 994-9,서울 금천구 시흥대로 225,37.45375776779925,126.90054244707846,02-804-9226,음식점 > 카페 > 커피전문점 > 할리스,http://place.map.kakao.com/1354396536,금천구
759542870,빽다방 가산두산위브점,서울 금천구 가산동 769,서울 금천구 가산로 99,37.47443924849682,126.8939445211737,02-830-4559,음식점 > 카페 > 커피전문점 > 빽다방,http://place.map.kakao.com/759542870,금천구
394323455,매머드익스프레스 호서대벤처타워점,서울 금천구 가산동 319,서울 금천구 가산디지털1로 70,37.4723225981603,126.886011552562,,음식점 > 카페 > 커피전문점 > 매머드익스프레스,http://place.map.kakao.com/394323455,금천구
1887888284,스타벅스 가산케이에스점,서울 금천구 가산동 60-14,서울 금천구 벚꽃로36길 30,37.48074248928671,126.88504001007452,1522-3232,음식점 > 카페 > 커피전문점 > 스타벅스,http://place.map.kakao.com/1887888284,금천구
951210778,우지커피 가산디지털단지역점,서울 금천구 가산동 470-5,서울 금천구 가산디지털1로 196,37.4829651679856,126.881285145178,,음식점 > 카페 > 커피전문점 > 우지커피,http://place.map.kakao.com/951210778,금천구
2093743998,에센스커피 가산W센터점,서울 금천구 가산동 371-106,서울 금천구 가산디지털1로 181,37.4814319893296,126.880725654867,,음식점 > 카페 > 커피전문점,http://place.map.kakao.com/2093743998,금천구
62238907,스타벅스 금천구청역점,서울 금천구 시흥동 1031,서울 금천구 시흥대로73길 67,37.455943996935765,126.89574736821737,1522-3232,음식점 > 카페 > 커피전문점 > 스타벅스,http://place.map.kakao.com/62238907,금천구
228733131,피크니크 시흥은행나무점,서울 금천구 시흥동 835-17,서울 금천구 금하로21길 23,37.4525546832039,126.908043921828,070-4114-6770,음식점 > 카페,http://place.map.kakao.com/228733131,금천구
1694963287,디저트39 가산한라원앤원점,서울 금천구 가산동 549-1,서울 금천구 가산디지털2로 101,37.4770443501798,126.879221083733,02-2101-2139,음식점 > 카페 > 테마카페 > 디저트카페 > 디저트39,http://place.map.kakao.com/1694963287,금천구
1966023163,찻집 순수,서울 금천구 독산동 991-47,서울 금천구 독산로92길 10,37.47381526182761,126.90390737861068,0503-7152-3437,음식점 > 카페,http://place.map.kakao.com/1966023163,금천구
765210492,쿡키,서울 금천구 가산동 50-3,서울 금천구 벚꽃로 298,37.4814405298382,126.883872145102,070-8836-9129,음식점 > 카페 > 커피전문점,http://place.map.kakao.com/765210492,금천구
2032912755,더벤티 가산모비우스점,서울 금천구 가산동 459-21,서울 금천구 가산디지털2로 169-23,37.482283743232216,126.87663142583203,070-7576-0608,음식점 > 카페 > 커피전문점 > 더벤티,http://place.map.kakao.com/2032912755,금천구
2074600451,스미다,서울 금천구 가산동 50-3,서울 금천구 벚꽃로 298,37.481712758370264,126.8839983532257,010-5940-2560,음식점 > 카페,http://place.map.kakao.com/2074600451,금천구
758078100,매머드익스프레스 에이스K1타워점,서울 금천구 가산동 459-29,서울 금천구 가산디지털2로 166,37.48267289403789,126.87828716529148,,음식점 > 카페 > 커피전문점 > 매머드익스프레스,http://place.map.kakao.com/758078100,금천구
586007148,감각,서울 노원구 상계동 337,서울 노원구 상계로 77,37.65673675152843,127.06350840476674,070-7576-4177,음식점 > 카페,http://place.map.kakao.com/586007148,노원구
216150274,오누이,서울 노원구 공릉동 400-17,서울 노원구 동일로187길 12-47,37.62462055418875,127.0723847321775,,음식점 > 카페,http://place.map.kakao.com/216150274,노원구
1243478837,노원두물마루 커피&스낵,서울 노원구 하계동 354-4,서울 노원구 중랑천동자전거길 1402,37.637685696054334,127.05959473553712,070-4159-4852,음식점 > 카페,http://place.map.kakao.com/1243478837,노원구
1922535440,호이폴로이커피로스터스,서울 노원구 공릉동 509-12,서울 노원구 동일로186길 64,37.62523963688935,127.07650302646455,010-2613-5782,음식점 > 카페 > 커피전문점,http://place.map.kakao.com/1922535440,노원구
944088477,스타벅스 태릉입구역DT,서울 노원구 공릉동 653-8,서울 노원구 화랑로 469,37.61922817503568,127.07934560540714,1522-3232,음식점 > 카페 > 커피전문점 > 스타벅스,http://place.map.kakao.com/944088477,노원구
489503293,메가MGC커피 노원역점,서울 노원구 상계동 709-2,서울 노원구 노해로 459,37.6542091025021,127.059063987782,02-930-7373,음식점 > 카페 > 커피전문점 > 메가MGC커피,http://place.map.kakao.com/489503293,노원구
20046343,스타벅스 중계역점,서울 노원구 상계동 763-3,서울 노원구 동일로 1339,37.6481817147963,127.062204808397,1522-3232,음식점 > 카페 > 커피전문점 > 스타벅스,http://place.map.kakao.com/20046343,노원구
815488253,마카모예 브레드바,서울 노원구 공릉동 392-19,서울 노원구 동일로190길 61,37.6264740619244,127.076389877884,02-6449-2228,음식점 > 카페 > 테마카페 > 디저트카페,http://place.map.kakao.com/815488253,노원구
18513082,투썸플레이스 석계역점,서울 노원구 월계동 58-2,서울 노원구 석계로1길 10,37.61560644067768,127.06413487178988,02-915-7955,음식점 > 카페 > 커피전문점 > 투썸플레이스,http://place.map.kakao.com/18513082,노원구
27229512,에슬로우커피 공릉점,서울 노원구 공릉동 90-4,서울 노원구 노원로 3,37.62213314163053,127.0867658968286,02-949-4542,음식점 > 카페 > 커피전문점,http://place.map.kakao.com/27229512,노원구
27393037,빽다방 노원역우리은행점,서울 노원구 상계동 727,서울 노원구 노해로 482,37.654210378508544,127.06184833657346,02-930-1350,음식점 > 카페 > 커피전문점 > 빽다방,http://place.map.kakao.com/27393037,노원구
26555618,유니온커피로스터,서울 노원구 공릉동 434-3,서울 노원구 동일로198길 72,37.629646162789,127.075412069868,010-7400-5007,음식점 > 카페 > 커피전문점,http://place.map.kakao.com/26555618,노원구
985778800,시즌,서울 노원구 상계동 358-6,서울 노원구 상계로3길 38-2,37.6578724006006,127.062738737394,,음식점 > 카페 > 테마카페 > 디저트카페,http://place.map.kakao.com/985778800,노원구
1139458737,월계청춘카페,서울 노원구 월계동 406,서울 노원구 광운로 44,37.6213607728479,127.059504676027,070-4174-7755,음식점 > 카페,http://place.map.kakao.com/1139458737,노원구
538398876,투썸플레이스 수락산역점,서울 노원구 상계동 1132-63,서울 노원구 동일로243길 13,37.67821707689581,127.05438992891062,02-936-2241,음식점 > 카페 > 커피전문점 > 투썸플레이스,http://place.map.kakao.com/538398876,노원구
706174556,할리스 석계역점,서울 노원구 월계동 50-29,서울 노원구 화랑로 325,37.614984908878924,127.0638579750062,02-942-1345,음식점 > 카페 > 커피전문점 > 할리스,http://place.map.kakao.com/706174556,노원구
26570316,할리스 노원문화의거리점,서울 노원구 상계동 332-1,서울 노원구 노해로81길 22-26,37.65581661110308,127.06394845727033,02-935-8231,음식점 > 카페 > 커피전문점 > 할리스,http://place.map.kakao.com/26570316,노원구
1800821127,스타벅스 상계초교사거리점,서울 노원구 상계동 372-16,서울 노원구 노원로 449,37.6566702654055,127.066441245826,1522-3232,음식점 > 카페 > 커피전문점 > 스타벅스,http://place.map.kakao.com/1800821127,노원구
233885945,카페공동,서울 노원구 공릉동 587-6,서울 노원구 동일로178길 59-25,37.6222034381558,127.077687031274,0503-7152-0621,음식점 > 카페 > 테마카페 > 디저트카페,http://place.map.kakao.com/233885945,노원구
27087656,공차 서울과기대점,서울 노원구 공릉동 438-2,서울 노원구 공릉로 227,37.6294472781973,127.076449563623,02-977-5856,음식점 > 카페 > 공차,http://place.map.kakao.com/27087656,노원구
1989237181,투썸플레이스 상계사거리점,서울 노원구 상계동 749,서울 노원구 동일로 1374,37.65124621047641,127.06172462735562,02-937-0014,음식점 > 카페 > 커피전문점 > 투썸플레이스,http://place.map.kakao.com/1989237181,노원구
17688746,커피베스코,서울 노원구 상계동 693-3,서울 노원구 상계로 55,37.6560424109599,127.061205032068,,음식점 > 카페 > 커피전문점,http://place.map.kakao.com/17688746,노원구
19696160,시드누아 노원본점,서울 노원구 상계동 341-5,서울 노원구 상계로 84,37.6563038530763,127.06429678673,,음식점 > 카페,http://place.map.kakao.com/19696160,노원구
1649823547,지니카페,서울 노원구 중계동 107-51,서울 노원구 중계로16길 26,37.65111052916348,127.08184985413732,010-7372-8999,음식점 > 카페 > 테마카페 > 무인카페,http://place.map.kakao.com/1649823547,노원구
420141266,파스쿠찌 공릉역점,서울 노원구 공릉동 398-4,서울 노원구 동일로191길 7,37.6251907316458,127.072624303744,02-972-8497,음식점 > 카페 > 커피전문점 > 파스쿠찌,http://place.map.kakao.com/420141266,노원구
1705023599,투썸플레이스 노원구청점,서울 노원구 상계동 705-1,서울 노원구 노해로 449,37.6540546621229,127.057998630829,02-6959-1880,음식점 > 카페 > 커피전문점 > 투썸플레이스,http://place.map.kakao.com/1705023599,노원구
1764989514,르다,서울 노원구 상계동 396-6,서울 노원구 상계로9길 28,37.6583209041955,127.066370185997,02-938-5599,음식점 > 카페,http://place.map.kakao.com/1764989514,노원구
799469641,스타벅스 공릉역점,서울 노원구 공릉동 379-27,서울 노원구 동일로 1081,37.626422618227,127.07223694894179,1522-3232,음식점 > 카페 > 커피전문점 > 스타벅스,http://place.map.kakao.com/799469641,노원구
206091656,위플랜트위커피,서울 노원구 공릉동 587-1,서울 노원구 동일로178길 59-39,37.62277559369511,127.07764344930207,,음식점 > 카페 > 커피전문점,http://place.map.kakao.com/206091656,노원구
693588607,메가MGC커피 하계온천점,서울 노원구 하계동 251-4,서울 노원구 노원로 257,37.640228115647545,127.07273184667723,02-975-1002,음식점 > 카페 > 커피전문점 > 메가MGC커피,http://place.map.kakao.com/693588607,노원구
292742412,투썸플레이스 태릉입구역점,서울 노원구 공릉동 680-8,서울 노원구 동일로 985,37.61805870252752,127.07520327845756,02-6953-0229,음식점 > 카페 > 커피전문점 > 투썸플레이스,http://place.map.kakao.com/292742412,노원구
104975880,웨이스테이션,서울 노원구 공릉동 653-22,서울 노원구 화랑로 467,37.619093176809834,127.0791223205656,0507-1383-5363,음식점 > 카페,http://place.map.kakao.com/104975880,노원구
1671540851,후아나 석계점,서울 노원구 월계동 56,서울 노원구 석계로1길 18,37.6155399884749,127.063727063041,02-918-2885,음식점 > 카페 > 테마카페 > 디저트카페,http://place.map.kakao.com/1671540851,노원구
1628493659,메가MGC커피 중계무지개점,서울 노원구 중계동 512,서울 노원구 동일로 1280,37.64313091163283,127.06533238075072,02-971-6773,음식점 > 카페 > 커피전문점 > 메가MGC커피,http://place.map.kakao.com/1628493659,노원구
2008918318,어빌리티커피 공릉,서울 노원구 공릉동 561-22,서울 노원구 동일로180길 61-7,37.62319458146912,127.07759970745333,010-9768-0114,음식점 > 카페,http://place.map.kakao.com/2008918318,노원구
1639616440,투썸플레이스 노원하계1동점,서울 노원구 하계동 256-9,서울 노원구 노원로 238,37.6392348466435,127.074787279009,02-971-1911,음식점 > 카페 > 커피전문점 > 투썸플레이스,http://place.map.kakao.com/1639616440,노원구
2080972721,스타벅스 노원마들역점,서울 노원구 상계동 694,서울 노원구 노원로 547,37.66092103259188,127.05802437230538,1522-3232,음식점 > 카페 > 커피전문점 > 스타벅스,http://place.map.kakao.com/2080972721,노원구
414622779,메트로폴리스,서울 노원구 공릉동 577-13,서울 노원구 동일로178길 11-9,37.6215014561747,127.075077614618,,음식점 > 카페,http://place.map.kakao.com/414622779,노원구
1580122869,읍천리382 석계역점,서울 노원구 월계동 55,서울 노원구 석계로5길 11,37.616181439168926,127.06382501865565,010-7774-3820,음식점 > 카페 > 커피전문점 > 읍천리382,http://place.map.kakao.com/1580122869,노원구
107508731,씨즌 서울 바이 홍신애,서울 노원구 상계동 9,서울 노원구 덕릉로145길 108,37.6810099650857,127.089960998774,,음식점 > 카페,http://place.map.kakao.com/107508731,노원구
1212235938,카페 스너들,서울 노원구 공릉동 557-1,서울 노원구 동일로184길 52,37.6244170320563,127.076508980087,0503-7153-3890,음식점 > 카페,http://place.map.kakao.com/1212235938,노원구
1062168145,백오얏,서울 노원구 상계동 603-14,서울 노원구 상계로1길 8,37.6563646676491,127.061770795038,0503-7153-5614,음식점 > 카페 > 커피전문점,http://place.map.kakao.com/1062168145,노원구
1323786764,템포커피 중계점,서울 노원구 중계동 360-9,서울 노원구 한글비석로 245,37.64974835375807,127.07630832642019,0507-0289-9514,음식점 > 카페,http://place.map.kakao.com/1323786764,노원구
547299085,아티스트웨이,서울 노원구 공릉동 366-27,서울 노원구 동일로192다길 55,37.6289729869417,127.074210571559,,음식점 > 카페,http://place.map.kakao.com/547299085,노원구
475388285,빽다방 상계백병원점,서울 노원구 상계동 749-6,서울 노원구 동일로 1354,37.64950255321836,127.06221044267153,070-4333-4229,음식점 > 카페 > 커피전문점 > 빽다방,http://place.map.kakao.com/475388285,노원구
2002605651,도봉산커피,서울 도봉구 도봉동 282-316,서울 도봉구 도봉산4가길 4,37.6882338339992,127.041926012665,,음식점 > 카페 > 커피전문점,http://place.map.kakao.com/2002605651,도봉구
861389811,투썸플레이스 방학역점,서울 도봉구 방학동 706-9,서울 도봉구 도봉로 696,37.66661250081175,127.04342469554587,02-954-7799,음식점 > 카페 > 커피전문점 > 투썸플레이스,http://place.map.kakao.com/861389811,도봉구
346649554,투썸플레이스 쌍문중앙점,서울 도봉구 창동 659-4,서울 도봉구 도봉로 482,37.648465938233535,127.03494048095442,02-991-2377,음식점 > 카페 > 커피전문점 > 투썸플레이스,http://place.map.kakao.com/346649554,도봉구
1391240256,컴포즈커피 방학신동아점,서울 도봉구 방학동 484-15,서울 도봉구 시루봉로 106,37.660089603364,127.027828677296,02-955-4237,음식점 > 카페 > 커피전문점 > 컴포즈커피,http://place.map.kakao.com/1391240256,도봉구
1503128545,티하우스다드림,서울 도봉구 창동 338,서울 도봉구 노해로 341,37.6514381283112,127.045905473553,010-2990-2593,음식점 > 카페 > 전통찻집,http://place.map.kakao.com/1503128545,도봉구
1567589438,더쌍화커피 쌍문동점,서울 도봉구 쌍문동 103-69,서울 도봉구 도봉로 415,37.6435737679164,127.031109548594,,음식점 > 카페,http://place.map.kakao.com/1567589438,도봉구
19530655,산과산사이커피로드,서울 도봉구 도봉동 44-5,서울 도봉구 도봉로180가길 96,37.6877888252236,127.046533287527,070-4177-8197,음식점 > 카페,http://place.map.kakao.com/19530655,도봉구
1421222196,오란다방,서울 도봉구 방학동 717-6,서울 도봉구 도봉로150마길 34,37.6674532402307,127.045484631459,02-2039-1166,음식점 > 카페 > 테마카페 > 디저트카페,http://place.map.kakao.com/1421222196,도봉구
990674604,와겐커피 방학역점,서울 도봉구 방학동 716-14,서울 도봉구 도봉로150마길 15,37.6666921290722,127.044917456739,02-2277-3001,음식점 > 카페,http://place.map.kakao.com/990674604,도봉구
126319167,투썸플레이스 도봉산입구점,서울 도봉구 도봉동 282-304,서울 도봉구 도봉산4가길 13-11,37.6875996377165,127.041667163252,02-3492-7778,음식점 > 카페 > 커피전문점 > 투썸플레이스,http://place.map.kakao.com/126319167,도봉구
1442527354,메가MGC커피 창동어울림점,서울 도봉구 창동 296-20,서울 도봉구 해등로16길 32,37.6554310293995,127.041737574192,02-997-0182,음식점 > 카페 > 커피전문점 > 메가MGC커피,http://place.map.kakao.com/1442527354,도봉구
1340630386,스타벅스 방학역점,서울 도봉구 방학동 707-6,서울 도봉구 도봉로 684,37.6653465622203,127.043589434428,1522-3232,음식점 > 카페 > 커피전문점 > 스타벅스,http://place.map.kakao.com/1340630386,도봉구
27440655,쌍문동커피,서울 도봉구 창동 658-49,서울 도봉구 도봉로116길 5,37.6481927078623,127.035716553408,,음식점 > 카페 > 커피전문점,http://place.map.kakao.com/27440655,도봉구
79326740,메가MGC커피 방학점,서울 도봉구 방학동 280-6,서울 도봉구 방학로 192,37.662310670930054,127.03085442805381,02-954-6555,음식점 > 카페 > 커피전문점 > 메가MGC커피,http://place.map.kakao.com/79326740,도봉구
1715555630,스위츠 루스트레,서울 도봉구 창동 14-4,서울 도봉구 마들로11길 25,37.6539070759052,127.051815634443,070-7755-0214,음식점 > 카페 > 커피전문점,http://place.map.kakao.com/1715555630,도봉구
474419088,스타벅스 도봉로DT점,서울 도봉구 쌍문동 707-9,서울 도봉구 도봉로 635,37.6611802326364,127.041629725755,1522-3232,음식점 > 카페 > 커피전문점 > 스타벅스,http://place.map.kakao.com/474419088,도봉구
19975170,가배미혼,서울 도봉구 쌍문동 88-97,서울 도봉구 도봉로115길 4,37.6486220337025,127.034171148033,,음식점 > 카페 > 커피전문점,http://place.map.kakao.com/19975170,도봉구
1981789673,리프패럿 방학동점,서울 도봉구 방학동 696,서울 도봉구 도당로 80,37.6648354576357,127.036345625447,010-2814-0616,음식점 > 카페 > 테마카페,http://place.map.kakao.com/1981789673,도봉구
53269966,탐앤탐스 창동본점,서울 도봉구 창동 691-11,서울 도봉구 노해로 285,37.6518367180413,127.039979110685,02-543-3242,음식점 > 카페 > 커피전문점 > 탐앤탐스,http://place.map.kakao.com/53269966,도봉구
17551253,엉클두,서울 도봉구 창동 263-33,서울 도봉구 노해로63가길 37,37.654357617453186,127.04511400769648,,음식점 > 카페 > 커피전문점,http://place.map.kakao.com/17551253,도봉구
42939404,숲속마을카페,서울 도봉구 방학동 612-14,서울 도봉구 시루봉로15다길 2,37.668182888371994,127.03225779470439,02-955-1446,음식점 > 카페,http://place.map.kakao.com/42939404,도봉구
2084988667,키웨스트 연산군묘점,서울 도봉구 방학동 584,서울 도봉구 방학로17길 85,37.662568702076,127.021075923226,,음식점 > 카페 > 커피전문점,http://place.map.kakao.com/2084988667,도봉구
24695495,카페오븐,서울 도봉구 창동 813,서울 도봉구 해등로16길 12,37.6562243039376,127.040561692927,02-3141-0089,음식점 > 카페 > 커피전문점,http://place.map.kakao.com/24695495,도봉구
1114761528,백억커피 창동점,서울 도봉구 창동 286-10,서울 도봉구 해등로16길 46,37.65516950205176,127.04241737500767,,음식점 > 카페 > 커피전문점,http://place.map.kakao.com/1114761528,도봉구
1786896271,오이오,서울 도봉구 쌍문동 525,서울 도봉구 삼양로162길 51-7,37.65777530166356,127.0165436947136,02-2039-0055,음식점 > 카페,http://place.map.kakao.com/1786896271,도봉구
1553976296,도봉관,서울 도봉구 창동 700-27,서울 도봉구 노해로 261,37.6516159966507,127.037164145042,02-991-1231,음식점 > 카페 > 테마카페 > 디저트카페,http://place.map.kakao.com/1553976296,도봉구
1742105290,디에그,서울 도봉구 창동 667-40,서울 도봉구 도봉로114길 58,37.6475344178439,127.037558706488,010-3947-1678,음식점 > 카페 > 테마카페 > 디저트카페,http://place.map.kakao.com/1742105290,도봉구
1419838151,제리당,서울 도봉구 쌍문동 103-46,서울 도봉구 도봉로109길 23,37.646805354494155,127.03201625789342,0502-5550-7196,음식점 > 카페,http://place.map.kakao.com/1419838151,도봉구
856030901,컴포즈커피 방학역점,서울 도봉구 방학동 716-2,서울 도봉구 도봉로150길 27,37.6661912464456,127.044752810024,,음식점 > 카페 > 커피전문점 > 컴포즈커피,http://place.map.kakao.com/856030901,도봉구
1762898207,마이림,서울 도봉구 쌍문동 449-7,서울 도봉구 우이천로34길 13,37.649829365373655,127.02294770947067,010-2031-7967,음식점 > 카페 > 테마카페 > 디저트카페,http://place.map.kakao.com/1762898207,도봉구
487593021,더벤티 쌍문초점,서울 도봉구 쌍문동 372-11,서울 도봉구 노해로 137,37.6472421490695,127.025355937071,070-8211-1564,음식점 > 카페 > 커피전문점 > 더벤티,http://place.map.kakao.com/487593021,도봉구
1540774214,레드문뷰티,서울 도봉구 창동 537-10,서울 도봉구 우이천로4다길 69,37.6368094035701,127.039392111773,0502-5551-6257,음식점 > 카페,http://place.map.kakao.com/1540774214,도봉구
2111250465,더쌍화커피,서울 도봉구 창동 12-3,서울 도봉구 노해로69길 21,37.65327239226569,127.05064344759757,,음식점 > 카페,http://place.map.kakao.com/2111250465,도봉구
129036003,커피배우다,서울 도봉구 쌍문동 423-94,서울 도봉구 삼양로142길 7,37.6505723050833,127.013749952189,010-4643-5712,음식점 > 카페,http://place.map.kakao.com/129036003,도봉구
933788438,무수울카페,서울 도봉구 도봉동 435-18,서울 도봉구 도봉로173길 124,37.6785967838013,127.037114118061,02-966-6010,음식점 > 카페,http://place.map.kakao.com/933788438,도봉구
697641350,스타벅스 창동이마트점,서울 도봉구 창동 75-3,서울 도봉구 노해로65길 4,37.6516449755707,127.046868813877,1522-3232,음식점 > 카페 > 커피전문점 > 스타벅스,http://place.map.kakao.com/697641350,도봉구
1985501177,카페152길,서울 도봉구 도봉동 622-64,서울 도봉구 도봉로152길 29-3,37.66960658911422,127.04546894367108,02-954-1520,음식점 > 카페 > 테마카페 > 디저트카페,http://place.map.kakao.com/1985501177,도봉구
635306818,꿀소담,서울 도봉구 창동 269-4,서울 도봉구 해등로16길 67,37.655069909807466,127.04374321362616,010-9092-1512,음식점 > 카페 > 테마카페 > 디저트카페,http://place.map.kakao.com/635306818,도봉구
1316716091,그랩커피,서울 도봉구 쌍문동 315-43,서울 도봉구 도봉로109길 62,37.64729871250795,127.03003916518051,070-8224-7603,음식점 > 카페 > 커피전문점,http://place.map.kakao.com/1316716091,도봉구
27347024,카미노커피로스터스,서울 도봉구 방학동 671-18,서울 도봉구 도당로 46,37.66201941519231,127.0349411657752,,음식점 > 카페,http://place.map.kakao.com/27347024,도봉구
907257139,공차 방학역점,서울 도봉구 방학동 716-5,서울 도봉구 도봉로150길 43,37.66663768709154,127.04591256640013,02-956-1231,음식점 > 카페 > 공차,http://place.map.kakao.com/907257139,도봉구
585227643,메가MGC커피 신창시장점,서울 도봉구 창동 569-85,서울 도봉구 덕릉로 238,37.639029672246934,127.03866136589593,02-6104-0927,음식점 > 카페 > 커피전문점 > 메가MGC커피,http://place.map.kakao.com/585227643,도봉구
134004806,메가MGC커피 창동역점,서울 도봉구 창동 4,서울 도봉구 마들로11가길 13,37.652824350823444,127.04911104384927,02-998-4242,음식점 > 카페 > 커피전문점 > 메가MGC커피,http://place.map.kakao.com/134004806,도봉구
1936223391,토그윗,서울 도봉구 쌍문동 708-5,서울 도봉구 방학로3길 26,37.6615580434163,127.04077199649771,0503-7150-7191,음식점 > 카페,http://place.map.kakao.com/1936223391,도봉구
236297929,만랩커피 창동역점,서울 도봉구 창동 74-7,서울 도봉구 노해로63길 82,37.6526542320392,127.046475092117,02-998-1002,음식점 > 카페 > 커피전문점,http://place.map.kakao.com/236297929,도봉구
1113162121,망우로30,서울 동대문구 휘경동 317-60,서울 동대문구 망우로 30-1,37.588002040652,127.056819642733,0502-5552-9170,음식점 > 카페,http://place.map.kakao.com/1113162121,동대문구
26354962,커피나인 본점,서울 동대문구 답십리동 268-8,서울 동대문구 전농로3길 12,37.56841819109362,127.05649235058115,02-6396-9992,음식점 > 카페 > 커피전문점 > 커피나인,http://place.map.kakao.com/26354962,동대문구
7883277,민들레영토 경희대점,서울 동대문구 회기동 60-84,서울 동대문구 경희대로1길 34,37.591998169353346,127.05036411727404,02-959-3733,음식점 > 카페 > 커피전문점,http://place.map.kakao.com/7883277,동대문구
209208344,메가MGC커피 청량리시장점,서울 동대문구 제기동 655,서울 동대문구 왕산로 163-1,37.57921652845093,127.04150027383898,02-959-0421,음식점 > 카페 > 커피전문점 > 메가MGC커피,http://place.map.kakao.com/209208344,동대문구
104266652,투썸플레이스 제기동역점,서울 동대문구 제기동 1158-50,서울 동대문구 왕산로 91,37.5785811112044,127.033693072818,02-928-9900,음식점 > 카페 > 커피전문점 > 투썸플레이스,http://place.map.kakao.com/104266652,동대문구
927674027,엔터팟,서울 동대문구 이문동 288-60,서울 동대문구 휘경로 4,37.59620284411775,127.06049582555066,02-959-3853,음식점 > 카페 > 테마카페,http://place.map.kakao.com/927674027,동대문구
16620949,투썸플레이스 장안점,서울 동대문구 장안동 375-1,서울 동대문구 장한로 73,37.567528930416046,127.06837679886432,02-2212-1780,음식점 > 카페 > 커피전문점 > 투썸플레이스,http://place.map.kakao.com/16620949,동대문구
24868732,스타벅스 회기역사거리점,서울 동대문구 회기동 346-18,서울 동대문구 이문로 37,37.5909755140802,127.0564052274,1522-3232,음식점 > 카페 > 커피전문점 > 스타벅스,http://place.map.kakao.com/24868732,동대문구
789579036,키라쿠,서울 동대문구 제기동 1152-13,서울 동대문구 약령시로 5-1,37.5827860652058,127.030309847467,,음식점 > 카페,http://place.map.kakao.com/789579036,동대문구
2093688428,카페양귀비,서울 동대문구 이문동 345-7,서울 동대문구 이문로9길 8,37.5929319456092,127.05748918359,,음식점 > 카페,http://place.map.kakao.com/2093688428,동대문구
350126460,투썸플레이스 장안동사거리점,서울 동대문구 장안동 307-6,서울 동대문구 답십리로 273,37.572557741227484,127.07082876347575,02-2212-9027,음식점 > 카페 > 커피전문점 > 투썸플레이스,http://place.map.kakao.com/350126460,동대문구
905506402,하타가야 신설동점,서울 동대문구 신설동 92-17,서울 동대문구 하정로 40-3,37.5746166729007,127.026919521522,02-953-1523,음식점 > 카페,http://place.map.kakao.com/905506402,동대문구
1989079728,너디블루,서울 동대문구 전농동 103-312,서울 동대문구 전농로36길 9,37.5854270107495,127.052927490305,0507-1421-1310,음식점 > 카페,http://place.map.kakao.com/1989079728,동대문구
105370530,오앤디,서울 동대문구 휘경동 293-171,서울 동대문구 망우로12가길 17,37.588825725500726,127.06009923196115,0502-5550-9325,음식점 > 카페,http://place.map.kakao.com/105370530,동대문구
609996995,스타벅스 경동1960점,서울 동대문구 제기동 1019,서울 동대문구 고산자로36길 3,37.579612121447056,127.03868043435175,1522-3232,음식점 > 카페 > 커피전문점 > 스타벅스,http://place.map.kakao.com/609996995,동대문구
799513095,투썸플레이스 신설동역점,서울 동대문구 신설동 98-30,서울 동대문구 왕산로 14,37.57600728847326,127.02519365402968,02-953-8887,음식점 > 카페 > 커피전문점 > 투썸플레이스,http://place.map.kakao.com/799513095,동대문구
1756550545,프롬하츠커피 신설동역점,서울 동대문구 신설동 89-79,서울 동대문구 왕산로 25,37.57678644432569,127.02613352338201,,음식점 > 카페,http://place.map.kakao.com/1756550545,동대문구
1387251423,스타벅스 답십리역점,서울 동대문구 답십리동 497-67,서울 동대문구 천호대로 263,37.5684638941316,127.051104396527,1522-3232,음식점 > 카페 > 커피전문점 > 스타벅스,http://place.map.kakao.com/1387251423,동대문구
1853475772,스타벅스 경희대삼거리점,서울 동대문구 회기동 60-40,서울 동대문구 회기로 141,37.5915937901333,127.052057736553,,음식점 > 카페 > 커피전문점 > 스타벅스,http://place.map.kakao.com/1853475772,동대문구
7366235,메이크데이,서울 동대문구 신설동 104-22,서울 동대문구 난계로30길 28-7,37.573803556001664,127.02471859889322,02-6494-0622,음식점 > 카페,http://place.map.kakao.com/7366235,동대문구
1415905244,탐석과 사랑,서울 동대문구 휘경동 77-2,서울 동대문구 망우로 99,37.5908634313857,127.06416571792,,음식점 > 카페,http://place.map.kakao.com/1415905244,동대문구
2058247531,차백도 경희대점,서울 동대문구 회기동 16-50,서울 동대문구 경희대로 8-1,37.5923215332852,127.052640241359,,음식점 > 카페,http://place.map.kakao.com/2058247531,동대문구
822088399,카페바움758,서울 동대문구 청량리동 205-758,서울 동대문구 회기로 36,37.5910721099612,127.04059424416,02-966-9347,음식점 > 카페,http://place.map.kakao.com/822088399,동대문구
1164031064,쏘리에스프레소바 제기점,서울 동대문구 제기동 426-2,서울 동대문구 약령시로 101-1,37.58318990964308,127.04150247940602,010-7582-2550,음식점 > 카페 > 커피전문점,http://place.map.kakao.com/1164031064,동대문구
1609221649,스타벅스 청량리역사점,서울 동대문구 전농동 588-1,서울 동대문구 왕산로 214,37.5807944854701,127.047808173856,1522-3232,음식점 > 카페 > 커피전문점 > 스타벅스,http://place.map.kakao.com/1609221649,동대문구
1981469680,아임파이 경희대점,서울 동대문구 회기동 60-139,서울 동대문구 회기로 116-1,37.5913182751195,127.049525774546,010-2609-1182,음식점 > 카페 > 테마카페 > 디저트카페,http://place.map.kakao.com/1981469680,동대문구
23612658,배트콩,서울 동대문구 회기동 54-11,서울 동대문구 경희대로4길 52,37.59153653331872,127.05513070384482,,음식점 > 카페 > 커피전문점,http://place.map.kakao.com/23612658,동대문구
1961817034,백억커피 외대점,서울 동대문구 이문동 305-151,서울 동대문구 휘경로 15,37.5959146613674,127.061973303805,,음식점 > 카페 > 커피전문점,http://place.map.kakao.com/1961817034,동대문구
310120419,투썸플레이스 청량리점,서울 동대문구 용두동 39-1,서울 동대문구 고산자로32길 78,37.57750385508852,127.04367515654798,02-2138-3776,음식점 > 카페 > 커피전문점 > 투썸플레이스,http://place.map.kakao.com/310120419,동대문구
26900379,스타벅스 신설동역점,서울 동대문구 신설동 76-10,서울 동대문구 왕산로 19,37.5766243895454,127.025566307699,1522-3232,음식점 > 카페 > 커피전문점 > 스타벅스,http://place.map.kakao.com/26900379,동대문구
17884754,스타벅스 장한평역점,서울 동대문구 장안동 433-7,서울 동대문구 장한로 10,37.5622904152963,127.065415653019,1522-3232,음식점 > 카페 > 커피전문점 > 스타벅스,http://place.map.kakao.com/17884754,동대문구
733530523,한시십일분,서울 동대문구 휘경동 280-2,서울 동대문구 망우로 40,37.58851691269339,127.05784017692153,0502-5553-1726,음식점 > 카페,http://place.map.kakao.com/733530523,동대문구
1261420085,역시커피,서울 동대문구 제기동 1142-6,서울 동대문구 회기로 28,37.5910760615185,127.03957067169,010-8436-8959,음식점 > 카페,http://place.map.kakao.com/1261420085,동대문구
1722210897,메가MGC커피 장안점,서울 동대문구 장안동 366-1,서울 동대문구 장한로 116,37.570722297152194,127.0710239871194,02-2215-0060,음식점 > 카페 > 커피전문점 > 메가MGC커피,http://place.map.kakao.com/1722210897,동대문구
697322686,샤갈의마을,서울 동대문구 회기동 65-39,서울 동대문구 이문로 7,37.588915180611,127.053973885505,02-6949-5210,음식점 > 카페 > 테마카페 > 디저트카페,http://place.map.kakao.com/697322686,동대문구
468848719,휘경동입구,서울 동대문구 휘경동 312-57,서울 동대문구 전농로38길 87,37.587808725505816,127.05598617947922,0503-7150-6294,음식점 > 카페 > 테마카페 > 무인카페,http://place.map.kakao.com/468848719,동대문구
412103740,아마스빈 경희대점,서울 동대문구 회기동 16-53,서울 동대문구 경희대로 6,37.592061193622186,127.05253475523529,02-962-9246,음식점 > 카페 > 아마스빈,http://place.map.kakao.com/412103740,동대문구
533776372,일프레소 신설,서울 동대문구 신설동 93-54,서울 동대문구 천호대로7길 9,37.5744425890685,127.027748098197,,음식점 > 카페,http://place.map.kakao.com/533776372,동대문구
775910249,메가MGC커피 신설동점,서울 동대문구 신설동 84-5,서울 동대문구 왕산로 3,37.5761454407448,127.023745812794,02-929-9294,음식점 > 카페 > 커피전문점 > 메가MGC커피,http://place.map.kakao.com/775910249,동대문구
10822360,커피빈 외대앞점,서울 동대문구 이문동 288-94,서울 동대문구 이문로 106,37.5960732548525,127.060195648305,02-959-7750,음식점 > 카페 > 커피전문점 > 커피빈,http://place.map.kakao.com/10822360,동대문구
491664026,투썸플레이스 휘경점,서울 동대문구 휘경동 275-5,서울 동대문구 망우로 86,37.5900532509465,127.062841413705,02-2039-6288,음식점 > 카페 > 커피전문점 > 투썸플레이스,http://place.map.kakao.com/491664026,동대문구
2133722235,노벰버라운지 외대점,서울 동대문구 이문동 288-41,서울 동대문구 휘경로2길 10,37.5956755962315,127.060822645662,,음식점 > 카페 > 더노벰버라운지,http://place.map.kakao.com/2133722235,동대문구
1607059799,메가MGC커피 전농동사거리점,서울 동대문구 전농동 295-284,서울 동대문구 전농로 135,37.577068158316,127.057496230181,02-2212-0224,음식점 > 카페 > 커피전문점 > 메가MGC커피,http://place.map.kakao.com/1607059799,동대문구
1999392526,스타벅스 청량리역롯데캐슬스카이점,서울 동대문구 전농동 620-47,서울 동대문구 답십리로 27,37.57924935723566,127.04533129705419,1522-3232,음식점 > 카페 > 커피전문점 > 스타벅스,http://place.map.kakao.com/1999392526,동대문구
212140549,스타벅스 외대정문점,서울 동대문구 이문동 329-1,서울 동대문구 이문로 93,37.5952952526032,127.059298210969,1522-3232,음식점 > 카페 > 커피전문점 > 스타벅스,http://place.map.kakao.com/212140549,동대문구
952397144,블랙모티브 사당역점,서울 동작구 사당동 1033-10,서울 동작구 동작대로7길 48,37.478837841668465,126.97949132923623,02-6085-0405,음식점 > 카페,http://place.map.kakao.com/952397144,동작구
19135161,동작노을카페,서울 동작구 동작동 316-3,서울 동작구 동작대로 335,37.505994297130705,126.98005391990012,,음식점 > 카페,http://place.map.kakao.com/19135161,동작구
542382647,케이크무드,서울 동작구 상도동 356-12,서울 동작구 상도로15길 45,37.50260064459625,126.93412414547143,010-3774-3524,음식점 > 카페 > 테마카페 > 디저트카페,http://place.map.kakao.com/542382647,동작구
1161295479,도쿄빙수 이수지점,서울 동작구 사당동 129-11,서울 동작구 동작대로27길 38,37.4876678115526,126.979986428082,02-3482-0503,음식점 > 카페 > 테마카페 > 디저트카페,http://place.map.kakao.com/1161295479,동작구
19392595,페니힐스,서울 동작구 사당동 1042-13,서울 동작구 동작대로1길 10-14,37.47789383489854,126.98099297486407,,음식점 > 카페 > 커피전문점,http://place.map.kakao.com/19392595,동작구
886072067,카페숨,서울 동작구 상도동 463-11,서울 동작구 상도로 329,37.498979887482,126.951702343025,0507-1486-8828,음식점 > 카페,http://place.map.kakao.com/886072067,동작구
2110386687,백억커피 노량진역점,서울 동작구 노량진동 40-14,서울 동작구 노량진로 114,37.51310153932603,126.93855332869694,0507-2085-0606,음식점 > 카페,http://place.map.kakao.com/2110386687,동작구
25068179,달의 둥지,서울 동작구 사당동 1131,서울 동작구 사당로13길 31,37.48476211029751,126.9714608473913,02-532-6998,음식점 > 카페 > 커피전문점,http://place.map.kakao.com/25068179,동작구
1713220292,핑크핑영화룸카페,서울 동작구 사당동 139-30,서울 동작구 동작대로27길 5,37.487239142702855,126.98127328337125,,음식점 > 카페 > 테마카페,http://place.map.kakao.com/1713220292,동작구
548840517,케이크팝,서울 동작구 상도동 505-1,서울 동작구 사당로 28,37.494934782954,126.957468736287,02-825-8799,음식점 > 카페 > 테마카페 > 디저트카페,http://place.map.kakao.com/548840517,동작구
26603579,세녹,서울 동작구 사당동 147-50,서울 동작구 사당로 304,37.4848749054006,126.981325884235,02-597-8001,음식점 > 카페,http://place.map.kakao.com/26603579,동작구
94881294,미학당작업실,서울 동작구 상도동 509-2,서울 동작구 사당로 56,37.49453220565943,126.9605640016428,02-816-0301,음식점 > 카페,http://place.map.kakao.com/94881294,동작구
17746858,투썸플레이스 이수역점,서울 동작구 사당동 130-20,서울 동작구 동작대로27길 28,37.48761292057038,126.98040706663662,02-534-1230,음식점 > 카페 > 커피전문점 > 투썸플레이스,http://place.map.kakao.com/17746858,동작구
1412043020,프레임676,서울 동작구 신대방동 586-2,서울 동작구 시흥대로 676,37.4917107509447,126.909171942001,070-8807-6046,음식점 > 카페 > 테마카페 > 갤러리카페,http://place.map.kakao.com/1412043020,동작구
26787519,커피나무 숭실대점,서울 동작구 상도동 506-9,서울 동작구 상도로61길 65,37.4947224942731,126.958449274623,02-6958-6850,음식점 > 카페 > 커피전문점,http://place.map.kakao.com/26787519,동작구
1155288675,더머커피 상도점,서울 동작구 상도1동 572,서울 동작구 강남초등8길 20,37.505223579806916,126.95102878392117,070-7525-1833,음식점 > 카페,http://place.map.kakao.com/1155288675,동작구
27332485,스타벅스 숭실대입구역점,서울 동작구 상도동 475-5,서울 동작구 상도로 354,37.4968611472544,126.952757658619,1522-3232,음식점 > 카페 > 커피전문점 > 스타벅스,http://place.map.kakao.com/27332485,동작구
12118390,엔제리너스 이수역점,서울 동작구 사당동 708-435,서울 동작구 동작대로25길 16,37.48632187550494,126.98101684570864,02-595-7619,음식점 > 카페 > 커피전문점 > 엔제리너스,http://place.map.kakao.com/12118390,동작구
587570196,오후홍콩 중앙대본점,서울 동작구 흑석동 188-15,서울 동작구 흑석로13가길 29,37.50788495325467,126.96008873810617,02-6398-6787,음식점 > 카페 > 테마카페 > 디저트카페,http://place.map.kakao.com/587570196,동작구
24245331,일리카페 보라매점,서울 동작구 신대방동 395-70,서울 동작구 보라매로5길 15,37.49223315959941,126.92426042155353,02-3284-1282,음식점 > 카페 > 커피전문점 > 일리카페,http://place.map.kakao.com/24245331,동작구
1011671302,원즈아토,서울 동작구 상도동 496-22,서울 동작구 상도로 392-20,37.4941416266832,126.954331194458,,음식점 > 카페 > 테마카페 > 디저트카페,http://place.map.kakao.com/1011671302,동작구
608159796,백억커피 이수역점,서울 동작구 사당동 89-26,서울 동작구 동작대로29가길 23,37.48886098050293,126.98142213464023,,음식점 > 카페 > 커피전문점,http://place.map.kakao.com/608159796,동작구
1087215175,보스톤커피 보라매역점,서울 동작구 대방동 400-1,서울 동작구 여의대방로 142,37.49973799571219,126.9206792233277,070-7767-7388,음식점 > 카페 > 커피전문점,http://place.map.kakao.com/1087215175,동작구
449929306,헤븐리가든,서울 동작구 상도동 29-2,서울 동작구 상도로34길 11,37.5041707760418,126.945913013064,070-7677-9647,음식점 > 카페,http://place.map.kakao.com/449929306,동작구
27274114,카페커브 신대방점,서울 동작구 신대방동 346-17,서울 동작구 보라매로 98-6,37.49783282090673,126.92844348404141,02-3280-0989,음식점 > 카페 > 커피전문점,http://place.map.kakao.com/27274114,동작구
27481543,오누이,서울 동작구 신대방동 586-2,서울 동작구 시흥대로 676,37.491602555382336,126.90907482686256,02-833-6046,음식점 > 카페 > 테마카페 > 갤러리카페,http://place.map.kakao.com/27481543,동작구
267845778,더머커피,서울 동작구 신대방동 344-15,서울 동작구 보라매로 91,37.4975107025576,126.927689508821,02-3280-1203,음식점 > 카페 > 커피전문점,http://place.map.kakao.com/267845778,동작구
876210721,카페코미,서울 동작구 상도동 348-149,서울 동작구 상도로 109,37.5009345439133,126.932281094847,,음식점 > 카페,http://place.map.kakao.com/876210721,동작구
1399551475,카페알코브,서울 동작구 대방동 391-357,서울 동작구 대방동1길 12,37.5003724960517,126.92655019309,010-8201-2630,음식점 > 카페,http://place.map.kakao.com/1399551475,동작구
2023214465,투썸플레이스 보라매삼성쉐르빌점,서울 동작구 신대방동 395-66,서울 동작구 보라매로5길 43,37.491634416289415,126.92352376421584,02-832-2388,음식점 > 카페 > 커피전문점 > 투썸플레이스,http://place.map.kakao.com/2023214465,동작구
2110652221,플란츠앤플라,서울 동작구 상도동 279-461,서울 동작구 성대로16길 67-5,37.496046666974465,126.939049041216,,음식점 > 카페 > 테마카페,http://place.map.kakao.com/2110652221,동작구
1542009728,나리당,서울 동작구 사당동 224-51,서울 동작구 사당로16가길 93,37.4848794656146,126.968784511075,,음식점 > 카페 > 테마카페 > 디저트카페,http://place.map.kakao.com/1542009728,동작구
17976802,나귀와플라타너스,서울 동작구 흑석동 184-24,서울 동작구 흑석로 101-3,37.5078527158409,126.960681406918,02-815-0915,음식점 > 카페,http://place.map.kakao.com/17976802,동작구
305615371,카페좋아진다,서울 동작구 사당동 1027-2,서울 동작구 사당로26길 87,37.47994764843187,126.97817049222307,02-812-0222,음식점 > 카페,http://place.map.kakao.com/305615371,동작구
16383132,단골커피,서울 동작구 노량진동 267-26,서울 동작구 등용로14길 61,37.51246438096951,126.93491176033714,02-823-0327,음식점 > 카페 > 커피전문점,http://place.map.kakao.com/16383132,동작구
991676534,스페이스케이노들,서울 동작구 본동 475-1,,37.513267621669115,126.95769473440917,,음식점 > 카페,http://place.map.kakao.com/991676534,동작구
1094569092,카페 피치,서울 동작구 신대방동 344-173,서울 동작구 보라매로9라길 28,37.49381162770164,126.92552645737416,,음식점 > 카페,http://place.map.kakao.com/1094569092,동작구
1087437089,블루브릭,서울 동작구 노량진동 222-5,서울 동작구 만양로8길 69,37.510363188882,126.945491186811,02-825-7223,음식점 > 카페,http://place.map.kakao.com/1087437089,동작구
202438281,뚜스뚜스 흑석역점,서울 동작구 흑석동 1-3,서울 동작구 현충로 75,37.5097602559997,126.963856376198,02-3664-9000,음식점 > 카페,http://place.map.kakao.com/202438281,동작구
314851144,카페레인보우,서울 동작구 상도1동 809,서울 동작구 상도로38길 3-2,37.5021407863039,126.947863067021,070-8211-0566,음식점 > 카페,http://place.map.kakao.com/314851144,동작구
1128734402,체크커피,서울 동작구 신대방동 708,서울 동작구 보라매로3길 29,37.491377580981094,126.92485267605929,010-2316-0302,음식점 > 카페,http://place.map.kakao.com/1128734402,동작구
1486193982,투썸플레이스 신대방삼거리점,서울 동작구 상도동 322-19,서울 동작구 국사봉1길 32,37.4988340834113,126.9303604984,02-6959-8888,음식점 > 카페 > 커피전문점 > 투썸플레이스,http://place.map.kakao.com/1486193982,동작구
10538394,스타벅스 숭실대점,서울 동작구 상도동 501-9,서울 동작구 사당로 4,37.4954167553415,126.954861906699,1522-3232,음식점 > 카페 > 커피전문점 > 스타벅스,http://place.map.kakao.com/10538394,동작구
2139500534,에브어이브,서울 동작구 상도동 494-15,서울 동작구 상도로62길 10,37.4949560780401,126.954179168639,010-4246-1403,음식점 > 카페,http://place.map.kakao.com/2139500534,동작구
127441830,마그마힐링카페 동작점,서울 동작구 상도동 248-2,서울 동작구 성대로1길 6,37.50038073230739,126.932818773329,010-9084-9297,음식점 > 카페 > 테마카페,http://place.map.kakao.com/127441830,동작구
1797970569,카페공명 연남점,서울 마포구 동교동 146-8,서울 마포구 연희로 11,37.5598708965573,126.926352615326,070-8869-6304,음식점 > 카페 > 커피전문점,http://place.map.kakao.com/1797970569,마포구
24529429,프릳츠 도화점,서울 마포구 도화동 179-9,서울 마포구 새창로2길 17,37.54101958095724,126.94907049011894,02-3275-2045,음식점 > 카페 > 테마카페 > 디저트카페,http://place.map.kakao.com/24529429,마포구
922091993,비파티세리 공덕점,서울 마포구 공덕동 105-67,서울 마포구 마포대로14길 4,37.548617458134956,126.95511954274626,02-702-1220,음식점 > 카페,http://place.map.kakao.com/922091993,마포구
657926243,앤트러사이트 서교점,서울 마포구 서교동 475-22,서울 마포구 월드컵로12길 11,37.555521630383105,126.9116794320928,02-336-7650,음식점 > 카페,http://place.map.kakao.com/657926243,마포구
1205540735,카페꼼마 합정점,서울 마포구 합정동 441-35,서울 마포구 포은로 49,37.5519408793309,126.906749532061,070-4179-2205,음식점 > 카페 > 테마카페 > 북카페,http://place.map.kakao.com/1205540735,마포구
10368349,땡스네이쳐카페,서울 마포구 서교동 486,서울 마포구 홍익로 10,37.5535983096117,126.923759261108,02-332-7470,음식점 > 카페,http://place.map.kakao.com/10368349,마포구
1178288045,콩카페 연남점,서울 마포구 연남동 223-114,서울 마포구 성미산로 161-14,37.56533288305784,126.9237450397382,070-4131-0333,음식점 > 카페,http://place.map.kakao.com/1178288045,마포구
24855092,빈브라더스 합정,서울 마포구 합정동 368-3,서울 마포구 토정로 35-1,37.54569416640838,126.91498394229322,02-6012-2001,음식점 > 카페 > 커피전문점,http://place.map.kakao.com/24855092,마포구
53292857,943킹스크로스,서울 마포구 서교동 369-1,서울 마포구 양화로16길 24,37.552989095652656,126.92080954986005,0502-5552-8898,음식점 > 카페 > 테마카페,http://place.map.kakao.com/53292857,마포구
1811986888,비밀의화원 미드나잇점,서울 마포구 서교동 400-3,서울 마포구 독막로7길 27,37.54912083301454,126.9190709205069,02-3144-6977,음식점 > 카페 > 테마카페,http://place.map.kakao.com/1811986888,마포구
15985522,이미커피,서울 마포구 동교동 201-10,서울 마포구 동교로25길 7,37.55747500027613,126.92191959031598,02-6368-5228,음식점 > 카페 > 커피전문점,http://place.map.kakao.com/15985522,마포구
1658636377,대충유원지,서울 마포구 연남동 570-28,서울 마포구 월드컵북로6길 37,37.5587425645618,126.920363197604,070-4799-5640,음식점 > 카페,http://place.map.kakao.com/1658636377,마포구
14565564,달콤한거짓말,서울 마포구 상수동 317-11,서울 마포구 독막로 61-4,37.5480857234544,126.920600860929,02-3141-3338,음식점 > 카페 > 테마카페 > 디저트카페,http://place.map.kakao.com/14565564,마포구
27379281,공상온도,서울 마포구 동교동 203-11,서울 마포구 동교로23길 40,37.557660985908534,126.91979846529037,0503-7152-8621,음식점 > 카페,http://place.map.kakao.com/27379281,마포구
1228594008,집사의하루 홍대점,서울 마포구 서교동 362-15,서울 마포구 와우산로21길 19-11,37.551855240909475,126.92292925264202,02-792-7984,음식점 > 카페 > 테마카페 > 고양이카페,http://place.map.kakao.com/1228594008,마포구
20620718,피피커피,서울 마포구 망원동 394-75,서울 마포구 동교로 23,37.55225126963019,126.90504935467473,02-335-0242,음식점 > 카페 > 커피전문점,http://place.map.kakao.com/20620718,마포구
13114734,도자기카페줄,서울 마포구 동교동 179-38,서울 마포구 신촌로4길 11,37.55727917176423,126.92854059675129,010-2231-8202,음식점 > 카페 > 테마카페,http://place.map.kakao.com/13114734,마포구
26944413,디저트 머라이언,서울 마포구 서교동 346-20,서울 마포구 와우산로27길 75,37.5555270040904,126.924630995297,,음식점 > 카페 > 테마카페 > 디저트카페,http://place.map.kakao.com/26944413,마포구
123575123,당인리책발전소,서울 마포구 서교동 475-26,서울 마포구 월드컵로14길 10-8,37.5556906203536,126.911149579773,,음식점 > 카페 > 테마카페 > 북카페,http://place.map.kakao.com/123575123,마포구
27508963,테일러커피 연남1호점,서울 마포구 연남동 224-41,서울 마포구 성미산로 189,37.563085683374,126.926402647715,02-326-0355,음식점 > 카페,http://place.map.kakao.com/27508963,마포구
8346767,비하인드,서울 마포구 서교동 404-26,서울 마포구 어울마당로5길 18,37.54927981276765,126.91966259636223,02-9999-9999,음식점 > 카페,http://place.map.kakao.com/8346767,마포구
11553130,커피 리브레 연남점,서울 마포구 연남동 239-34,서울 마포구 성미산로32길 20-5,37.56364350559978,126.92372978384485,02-334-0615,음식점 > 카페 > 커피전문점,http://place.map.kakao.com/11553130,마포구
26235884,피오니 홍대점,서울 마포구 서교동 395-78,서울 마포구 독막로7길 51,37.550085375447026,126.91976584375472,02-333-5325,음식점 > 카페 > 테마카페 > 디저트카페,http://place.map.kakao.com/26235884,마포구
262767594,서당개2년로스터스,서울 마포구 연남동 454-13,서울 마포구 동교로51길 129-6,37.5662710734055,126.920042780043,02-332-7133,음식점 > 카페,http://place.map.kakao.com/262767594,마포구
1246535644,포멜로빈 공덕점,서울 마포구 공덕동 478,서울 마포구 백범로 170,37.544440538456335,126.94875245578567,070-8811-5555,음식점 > 카페 > 커피전문점,http://place.map.kakao.com/1246535644,마포구
27194461,제비다방,서울 마포구 상수동 330-12,서울 마포구 와우산로 24,37.5466169482794,126.923100991167,02-325-1969,음식점 > 카페 > 테마카페,http://place.map.kakao.com/27194461,마포구
27369058,리얼이스케이프챌린지,서울 마포구 서교동 339-5,서울 마포구 와우산로27길 21,37.55417346486832,126.92711760256185,02-333-3882,음식점 > 카페 > 테마카페,http://place.map.kakao.com/27369058,마포구
15612278,카페장쌤,서울 마포구 서교동 333-30,서울 마포구 와우산로29마길 5,37.5557374557051,126.926889731852,070-4084-3414,음식점 > 카페,http://place.map.kakao.com/15612278,마포구
67926579,헤이쥬드,서울 마포구 동교동 189-2,서울 마포구 와우산로37길 7,37.5558765648485,126.930461366924,010-6566-4796,음식점 > 카페 > 커피전문점,http://place.map.kakao.com/67926579,마포구
19807068,딥커피,서울 마포구 동교동 199-2,서울 마포구 동교로 209,37.558714803316974,126.9233420793055,02-323-2979,음식점 > 카페 > 커피전문점,http://place.map.kakao.com/19807068,마포구
1068887729,머씨커피,서울 마포구 서교동 394-51,서울 마포구 양화로8길 32-10,37.5495061275321,126.916013934974,02-332-1211,음식점 > 카페 > 테마카페 > 디저트카페,http://place.map.kakao.com/1068887729,마포구
1618571685,차백도 홍대1호점,서울 마포구 동교동 169-15,서울 마포구 양화로18안길 8,37.5565940551388,126.925055458862,0507-1412-1462,음식점 > 카페,http://place.map.kakao.com/1618571685,마포구
1040119941,디벙크,서울 마포구 합정동 366-1,서울 마포구 성지1길 30,37.547901709139026,126.91511722948697,02-6930-5598,음식점 > 카페,http://place.map.kakao.com/1040119941,마포구
1007372949,오랑지,서울 마포구 연남동 390-71,서울 마포구 동교로38길 13,37.56205406384277,126.92500471659744,,음식점 > 카페,http://place.map.kakao.com/1007372949,마포구
821147819,카페라래,서울 마포구 서교동 333-29,서울 마포구 와우산로29마길 7,37.5556238683893,126.926790250052,0507-1438-0096,음식점 > 카페,http://place.map.kakao.com/821147819,마포구
966554753,땡스오트 연남,서울 마포구 연남동 375-113,서울 마포구 성미산로23길 68,37.56626736967769,126.91989563739446,02-3144-0890,음식점 > 카페 > 테마카페 > 디저트카페,http://place.map.kakao.com/966554753,마포구
231272664,스타벅스 홍대공항철도역점,서울 마포구 동교동 166-1,서울 마포구 양화로 178,37.557509550972256,126.92518582665798,1522-3232,음식점 > 카페 > 커피전문점 > 스타벅스,http://place.map.kakao.com/231272664,마포구
728136862,꼬르소산도,서울 마포구 망원동 474-2,서울 마포구 월드컵로 157,37.5615998036139,126.904786226524,02-338-3383,음식점 > 카페 > 테마카페 > 디저트카페,http://place.map.kakao.com/728136862,마포구
22134837,애프터눈커피,서울 마포구 동교동 176-9,서울 마포구 신촌로4길 22-14,37.5573308503659,126.927589867452,02-335-3119,음식점 > 카페 > 커피전문점,http://place.map.kakao.com/22134837,마포구
642988041,어레미,서울 마포구 망원동 399-42,서울 마포구 희우정로12길 39,37.5540975111066,126.905170369035,02-594-5577,음식점 > 카페,http://place.map.kakao.com/642988041,마포구
805171541,연남동벚꽃집,서울 마포구 연남동 256-9,서울 마포구 동교로29길 50,37.562624720268886,126.92271556027116,0507-1359-3121,음식점 > 카페,http://place.map.kakao.com/805171541,마포구
448648411,민규 아빠네베이글 합정점,서울 마포구 합정동 355-24,서울 마포구 독막로8길 15,37.54717226349416,126.9181847147401,0502-5553-6372,음식점 > 카페 > 커피전문점,http://place.map.kakao.com/448648411,마포구
1071445829,비뮤티커피,서울 마포구 연남동 515-2,서울 마포구 연남로5길 9,37.562038215337225,126.9214168218254,0503-7151-6513,음식점 > 카페,http://place.map.kakao.com/1071445829,마포구
27539365,비앙비앙,서울 마포구 신공덕동 5-27,서울 마포구 만리재옛길 32,37.54675816929198,126.95611080933242,02-3273-7239,음식점 > 카페,http://place.map.kakao.com/27539365,마포구
2001197337,타이프 한강점,서울 마포구 상수동 356-6,서울 마포구 토정로 128,37.5449353183608,126.925338709558,,음식점 > 카페,http://place.map.kakao.com/2001197337,마포구
7785544,카페폭포,서울 서대문구 홍은동 429,서울 서대문구 연희로 262-24,37.581302749887186,126.93704933311089,02-330-4998,음식점 > 카페,http://place.map.kakao.com/7785544,서대문구
550496093,디폴트밸류,서울 서대문구 연희동 192-17,서울 서대문구 성산로 333,37.56614067277951,126.9273923142198,02-2293-3889,음식점 > 카페,http://place.map.kakao.com/550496093,서대문구
1349393694,문베어,서울 서대문구 창천동 5-21,서울 서대문구 명물길 66,37.5588964623876,126.939859171434,02-393-9488,음식점 > 카페 > 테마카페 > 디저트카페,http://place.map.kakao.com/1349393694,서대문구
182374697,비바보사,서울 서대문구 연희동 218-19,서울 서대문구 동교로 296,37.5651381604876,126.927875468097,0503-7151-3899,음식점 > 카페,http://place.map.kakao.com/182374697,서대문구
560241790,원앤온리커피,서울 서대문구 대현동 37-7,서울 서대문구 이화여대7길 31-4,37.55853529908076,126.94379352948137,,음식점 > 카페,http://place.map.kakao.com/560241790,서대문구
1011256721,더파이홀,서울 서대문구 창천동 57-61,서울 서대문구 연세로5나길 20,37.55703156286427,126.93506654602719,010-4258-1181,음식점 > 카페 > 커피전문점,http://place.map.kakao.com/1011256721,서대문구
226087484,카페 마,서울 서대문구 연희동 433-6,서울 서대문구 연희로11가길 48-10,37.56698768549003,126.92751713386629,,음식점 > 카페 > 테마카페 > 디저트카페,http://place.map.kakao.com/226087484,서대문구
1829849240,카바르나프라하,서울 서대문구 연희동 231-2,서울 서대문구 연희로16길 7-9,37.56814741873,126.932326693435,0503-7152-6320,음식점 > 카페 > 커피전문점,http://place.map.kakao.com/1829849240,서대문구
709761092,카시야,서울 서대문구 연희동 134-20,서울 서대문구 연희로 117,37.56830481351338,126.93184095397368,070-4647-0360,음식점 > 카페 > 테마카페 > 디저트카페,http://place.map.kakao.com/709761092,서대문구
10371912,벨라프라하,서울 서대문구 대현동 37-35,서울 서대문구 이화여대길 77,37.55906705470698,126.944146247964,02-363-3559,음식점 > 카페 > 테마카페 > 디저트카페,http://place.map.kakao.com/10371912,서대문구
18826661,독수리다방,서울 서대문구 창천동 31-4,서울 서대문구 연세로 36,37.558781568940425,126.93723126168338,02-363-1222,음식점 > 카페 > 다방,http://place.map.kakao.com/18826661,서대문구
725420477,스타벅스 이대점,서울 서대문구 대현동 54-4,서울 서대문구 이화여대길 34,37.55845341147771,126.94594397093421,1522-3232,음식점 > 카페 > 커피전문점 > 스타벅스,http://place.map.kakao.com/725420477,서대문구
1929678823,모래내 극락,서울 서대문구 남가좌동 289-6,서울 서대문구 수색로4길 7,37.5700118764168,126.914707279718,010-9821-1432,음식점 > 카페,http://place.map.kakao.com/1929678823,서대문구
1394087762,캐치카페 신촌,서울 서대문구 창천동 18-29,서울 서대문구 연세로 8-1,37.5563417081432,126.93730574006,070-7760-7765,음식점 > 카페 > 커피전문점,http://place.map.kakao.com/1394087762,서대문구
1647161658,메가MGC커피 신촌역점,서울 서대문구 창천동 20-41,서울 서대문구 신촌로 121,37.55615627517544,126.9393611427719,02-365-6051,음식점 > 카페 > 커피전문점 > 메가MGC커피,http://place.map.kakao.com/1647161658,서대문구
1426361939,금옥당 연희점,서울 서대문구 연희동 132-38,서울 서대문구 연희로11라길 2,37.56793595440123,126.9297042207789,02-322-3378,음식점 > 카페 > 테마카페 > 디저트카페,http://place.map.kakao.com/1426361939,서대문구
24997662,투썸플레이스 가재울뉴타운점,서울 서대문구 북가좌동 481,서울 서대문구 수색로 100,37.57741448677199,126.90990793492163,02-304-2338,음식점 > 카페 > 커피전문점 > 투썸플레이스,http://place.map.kakao.com/24997662,서대문구
1499333838,니바하우스,서울 서대문구 연희동 133-26,서울 서대문구 연희맛로 41,37.5684484888011,126.931007722532,02-3144-3335,음식점 > 카페,http://place.map.kakao.com/1499333838,서대문구
8122805,클로리스 신촌점,서울 서대문구 창천동 13-35,서울 서대문구 연세로4길 38,37.557782259130036,126.93874867003971,02-392-7523,음식점 > 카페,http://place.map.kakao.com/8122805,서대문구
1917900427,투썸플레이스 서대문연희점,서울 서대문구 연희동 137-3,서울 서대문구 연희로 105,37.5674475222833,126.931075428733,02-336-6818,음식점 > 카페 > 커피전문점 > 투썸플레이스,http://place.map.kakao.com/1917900427,서대문구
2136392038,투썸플레이스 서대문홍은점,서울 서대문구 홍은동 344-2,서울 서대문구 가좌로 143,37.584649143045006,126.92349777337175,02-303-4129,음식점 > 카페 > 커피전문점 > 투썸플레이스,http://place.map.kakao.com/2136392038,서대문구
15718891,라오상하이 신촌점,서울 서대문구 창천동 2-7,서울 서대문구 연세로12길 27,37.559091280804665,126.93850426397205,02-715-1542,음식점 > 카페 > 전통찻집,http://place.map.kakao.com/15718891,서대문구
445165609,앤트러사이트 연희점,서울 서대문구 연희동 89-19,서울 서대문구 연희로 135,37.56967130240304,126.9328528027426,02-332-7650,음식점 > 카페 > 커피전문점,http://place.map.kakao.com/445165609,서대문구
412558440,마리드로얄밀크티,서울 서대문구 창천동 70-46,서울 서대문구 연세로11길 40,37.5590910371104,126.934694664022,010-5431-0887,음식점 > 카페,http://place.map.kakao.com/412558440,서대문구
649348261,네마커피,서울 서대문구 북가좌동 316-32,서울 서대문구 거북골로 208-1,37.579021527664,126.908306355552,0507-1322-0703,음식점 > 카페 > 커피전문점,http://place.map.kakao.com/649348261,서대문구
692403334,아렌 베이글&포케 증산역점,서울 서대문구 북가좌동 343-26,서울 서대문구 불광천길 198,37.58357064455932,126.91065793094364,070-7736-1004,음식점 > 카페 > 커피전문점,http://place.map.kakao.com/692403334,서대문구
902853559,이씨 서울신촌점,서울 서대문구 창천동 5-32,서울 서대문구 연세로4길 61,37.558512460314816,126.93951202367586,010-2155-0461,음식점 > 카페 > 테마카페 > 디저트카페,http://place.map.kakao.com/902853559,서대문구
1526948368,일러스타 현대백화점유플렉스신촌점,서울 서대문구 창천동 30-1,서울 서대문구 연세로 13,37.55673147485879,126.93662183480423,010-8957-9290,음식점 > 카페 > 테마카페,http://place.map.kakao.com/1526948368,서대문구
1152652763,매머드익스프레스 충정로점,서울 서대문구 충정로3가 112,서울 서대문구 경기대로 26-22,37.5615349933795,126.962690499414,,음식점 > 카페 > 커피전문점 > 매머드익스프레스,http://place.map.kakao.com/1152652763,서대문구
19852273,호밀밭,서울 서대문구 창천동 4-77,서울 서대문구 신촌역로 43,37.558918423412536,126.94052464390788,02-392-5345,음식점 > 카페,http://place.map.kakao.com/19852273,서대문구
2135729409,루비의정원,서울 서대문구 홍제동 277-11,서울 서대문구 간호대로3길 36-6,37.59547323141757,126.94742547892224,0502-5550-5599,음식점 > 카페,http://place.map.kakao.com/2135729409,서대문구
16418510,미네르바,서울 서대문구 창천동 13-26,서울 서대문구 명물길 18,37.55768898805463,126.9378523866681,02-3147-1327,음식점 > 카페 > 커피전문점,http://place.map.kakao.com/16418510,서대문구
1800722665,투썸플레이스 서대문웨스트게이트타워점,서울 서대문구 미근동 332,서울 서대문구 충정로 70,37.564951783179794,126.96639456172902,02-6956-6226,음식점 > 카페 > 커피전문점 > 투썸플레이스,http://place.map.kakao.com/1800722665,서대문구
21394782,카페포엠,서울 서대문구 창천동 33-38,서울 서대문구 연세로 25,37.557889292194965,126.9366887603952,,음식점 > 카페,http://place.map.kakao.com/21394782,서대문구
1828249094,투썸플레이스 명지대점,서울 서대문구 남가좌동 324-34,서울 서대문구 거북골로 31-1,37.5795427499246,126.924175464537,02-6949-3776,음식점 > 카페 > 커피전문점 > 투썸플레이스,http://place.map.kakao.com/1828249094,서대문구
1402782800,투썸플레이스 신촌연세로점,서울 서대문구 창천동 31-27,서울 서대문구 연세로 28,37.5580895432947,126.937118664847,02-6959-0262,음식점 > 카페 > 커피전문점 > 투썸플레이스,http://place.map.kakao.com/1402782800,서대문구
211351831,카페앤 신촌점,서울 서대문구 창천동 18-15,서울 서대문구 연세로4길 4,37.556941694473494,126.93715924086527,,음식점 > 카페,http://place.map.kakao.com/211351831,서대문구
447976009,스타벅스 아현역점,서울 서대문구 북아현동 1015,서울 서대문구 신촌로35길 10,37.55821617134766,126.95613804296282,1522-3232,음식점 > 카페 > 커피전문점 > 스타벅스,http://place.map.kakao.com/447976009,서대문구
1632596295,계절의목소리,서울 서대문구 대현동 90-13,서울 서대문구 이화여대3길 27,37.5578507518831,126.944237697432,070-4283-2552,음식점 > 카페,http://place.map.kakao.com/1632596295,서대문구
403880967,낭만한도초과,서울 서대문구 연희동 128-30,서울 서대문구 연희로11다길 9,37.5670688736189,126.927677786298,0503-7153-7701,음식점 > 카페 > 커피전문점,http://place.map.kakao.com/403880967,서대문구
606314892,사주랑타로랑,서울 서대문구 창천동 13-1,서울 서대문구 명물길 34,37.5581947956353,126.93851745026,,음식점 > 카페 > 테마카페 > 사주카페,http://place.map.kakao.com/606314892,서대문구
17884757,스타벅스 충정로역점,서울 서대문구 충정로3가 470,,37.5615604100236,126.963292618166,1522-3232,음식점 > 카페 > 커피전문점 > 스타벅스,http://place.map.kakao.com/17884757,서대문구
1171087377,팝퍼블 카페 신촌점,서울 서대문구 창천동 30-1,서울 서대문구 연세로 13,37.556735973773996,126.93661051346454,,음식점 > 카페 > 테마카페,http://place.map.kakao.com/1171087377,서대문구
1590166351,돌파운드,서울 서대문구 연희동 132-32,서울 서대문구 연희로11라길 10-6,37.568436350958834,126.93028443054061,010-5904-1570,음식점 > 카페 > 테마카페 > 디저트카페,http://place.map.kakao.com/1590166351,서대문구
229457135,펠루시드커피,서울 서대문구 연희동 116-5,서울 서대문구 연희로11바길 2,37.5692641417204,126.92840463464,0503-7151-2604,음식점 > 카페,http://place.map.kakao.com/229457135,서대문구
2026998817,타짜도르 강남점,서울 서초구 서초동 1309,서울 서초구 서초대로77길 61,37.5024328327914,127.023686258623,070-8848-9965,음식점 > 카페,http://place.map.kakao.com/2026998817,서초구
554364299,프릳츠 양재점,서울 서초구 서초동 1363-10,서울 서초구 강남대로37길 24-11,37.48535313135524,127.0322016349072,02-521-4148,음식점 > 카페 > 커피전문점,http://place.map.kakao.com/554364299,서초구
